[
    {
        "code": 34503,
        "name": "踏浪星辰露營Camp",
        "city": "花蓮縣",
        "district": "新城鄉",
        "region": "花蓮縣新城鄉",
        "url": "https://asiayo.com/zh-tw/view/tw/hualien-county/34503/?tags=camping&isFromPropertyPage=true/",
        "latitude": 24.02570644,
        "longitude": 121.63183482,
        "type": 2,
        "disabled": 0,
        "bnbType": "露營區"
    },
    {
        "code": 37719,
        "name": "晃晃印地安帳篷露營區",
        "city": "桃園市",
        "district": "龍潭區",
        "region": "桃園市龍潭區",
        "url": "https://asiayo.com/zh-tw/view/tw/taoyuan-city/37719/?tags=camping&isFromPropertyPage=true/",
        "latitude": 24.8555769,
        "longitude": 121.2439967,
        "type": 2,
        "disabled": 0,
        "bnbType": "露營區"
    },
    {
        "code": 37908,
        "name": "遠山望月溫泉風呂 露營區",
        "city": "高雄市",
        "district": "六龜區",
        "region": "高雄市六龜區",
        "url": "https://asiayo.com/zh-tw/view/tw/kaohsiung-city/37908/?tags=camping&isFromPropertyPage=true/",
        "latitude": 23.1077039,
        "longitude": 120.70309455,
        "type": 2,
        "disabled": 0,
        "bnbType": "露營區"
    },
    {
        "code": 38992,
        "name": "後壁湖露營車民宿",
        "city": "屏東縣",
        "district": "墾丁 (恆春鎮)",
        "region": "屏東縣墾丁 (恆春鎮)",
        "url": "https://asiayo.com/zh-tw/view/tw/pingtung-county/38992/?tags=camping&isFromPropertyPage=true/",
        "latitude": 21.9481416,
        "longitude": 120.7434251,
        "type": 2,
        "disabled": 0,
        "bnbType": "露營區"
    },
    {
        "code": 39129,
        "name": "愛上喜翁民宿",
        "city": "新竹縣",
        "district": "五峰鄉",
        "region": "新竹縣五峰鄉",
        "url": "https://asiayo.com/zh-tw/view/tw/hsinchu-county/39129/?tags=camping&isFromPropertyPage=true/",
        "latitude": 24.5908476,
        "longitude": 121.1289742,
        "type": 2,
        "disabled": 0,
        "bnbType": "露營區"
    },
    {
        "code": 39172,
        "name": "英台休閒牧場",
        "city": "苗栗縣",
        "district": "苗栗市",
        "region": "苗栗縣苗栗市",
        "url": "https://asiayo.com/zh-tw/view/tw/miaoli-county/39172/?tags=camping&isFromPropertyPage=true/",
        "latitude": 24.5609538,
        "longitude": 120.8169081,
        "type": 1,
        "disabled": 0,
        "bnbType": "露營區"
    },
    {
        "code": 39217,
        "name": "野石森林 露營區",
        "city": "宜蘭縣",
        "district": "大同鄉",
        "region": "宜蘭縣大同鄉",
        "url": "https://asiayo.com/zh-tw/view/tw/yilan-county/39217/?tags=camping&isFromPropertyPage=true/",
        "latitude": 24.61025711,
        "longitude": 121.68937062,
        "type": 1,
        "disabled": 0,
        "bnbType": "露營區"
    },
    {
        "code": 39226,
        "name": "緣溪行森林營地",
        "city": "南投縣",
        "district": "埔里鎮",
        "region": "南投縣埔里鎮",
        "url": "https://asiayo.com/zh-tw/view/tw/nantou-county/39226/?tags=camping&isFromPropertyPage=true/",
        "latitude": 23.97317058,
        "longitude": 120.99370142,
        "type": 2,
        "disabled": 0,
        "bnbType": "露營區"
    },
    {
        "code": 39303,
        "name": "逗留營地",
        "city": "新竹縣",
        "district": "竹東鎮",
        "region": "新竹縣竹東鎮",
        "url": "https://asiayo.com/zh-tw/view/tw/hsinchu-county/39303/?tags=camping&isFromPropertyPage=true/",
        "latitude": 24.70056164,
        "longitude": 121.09689085,
        "type": 1,
        "disabled": 0,
        "bnbType": "露營區"
    },
    {
        "code": 39314,
        "name": "山思雲想",
        "city": "南投縣",
        "district": "竹山鎮",
        "region": "南投縣竹山鎮",
        "url": "https://asiayo.com/zh-tw/view/tw/nantou-county/39314/?tags=camping&isFromPropertyPage=true/",
        "latitude": 23.6970962,
        "longitude": 120.7129014,
        "type": 2,
        "disabled": 0,
        "bnbType": "露營區"
    },
    {
        "code": 39320,
        "name": "社寮角露營區",
        "city": "苗栗縣",
        "district": "大湖鄉",
        "region": "苗栗縣大湖鄉",
        "url": "https://asiayo.com/zh-tw/view/tw/miaoli-county/39320/?tags=camping&isFromPropertyPage=true/",
        "latitude": 24.4276104,
        "longitude": 120.88067631,
        "type": 1,
        "disabled": 0,
        "bnbType": "露營區"
    },
    {
        "code": 39334,
        "name": "三生園生態露營區",
        "city": "南投縣",
        "district": "鹿谷鄉",
        "region": "南投縣鹿谷鄉",
        "url": "https://asiayo.com/zh-tw/view/tw/nantou-county/39334/?tags=camping&isFromPropertyPage=true/",
        "latitude": 23.7260582,
        "longitude": 120.776549,
        "type": 1,
        "disabled": 0,
        "bnbType": "露營區"
    },
    {
        "code": 39348,
        "name": "山裡面的嵐卡",
        "city": "南投縣",
        "district": "信義鄉",
        "region": "南投縣信義鄉",
        "url": "https://asiayo.com/zh-tw/view/tw/nantou-county/39348/?tags=camping&isFromPropertyPage=true/",
        "latitude": 23.7943056,
        "longitude": 120.96325,
        "type": 2,
        "disabled": 0,
        "bnbType": "露營區"
    },
    {
        "code": 39349,
        "name": "畢瓦客Biwak",
        "city": "南投縣",
        "district": "魚池鄉",
        "region": "南投縣魚池鄉",
        "url": "https://asiayo.com/zh-tw/view/tw/nantou-county/39349/?tags=camping&isFromPropertyPage=true/",
        "latitude": 23.8670377,
        "longitude": 120.9040157,
        "type": 2,
        "disabled": 0,
        "bnbType": "露營區"
    },
    {
        "code": 39439,
        "name": "東風綠活 Oriental Green",
        "city": "宜蘭縣",
        "district": "冬山鄉",
        "region": "宜蘭縣冬山鄉",
        "url": "https://asiayo.com/zh-tw/view/tw/yilan-county/39439/?tags=camping&isFromPropertyPage=true/",
        "latitude": 24.6183044,
        "longitude": 121.7304403,
        "type": 2,
        "disabled": 0,
        "bnbType": "露營區"
    },
    {
        "code": 39466,
        "name": "泰里埔露營區",
        "city": "新竹縣",
        "district": "尖石鄉",
        "region": "新竹縣尖石鄉",
        "url": "https://asiayo.com/zh-tw/view/tw/hsinchu-county/39466/?tags=camping&isFromPropertyPage=true/",
        "latitude": 24.6712211,
        "longitude": 121.2952729,
        "type": 1,
        "disabled": 0,
        "bnbType": "露營區"
    },
    {
        "code": 39718,
        "name": "八 海 浬 民宿",
        "city": "屏東縣",
        "district": "琉球鄉 (小琉球)",
        "region": "屏東縣琉球鄉 (小琉球)",
        "url": "https://asiayo.com/zh-tw/view/tw/pingtung-county/39718/?tags=camping&isFromPropertyPage=true/",
        "latitude": 22.34849181,
        "longitude": 120.38319529,
        "type": 2,
        "disabled": 0,
        "bnbType": "露營區"
    },
    {
        "code": 39771,
        "name": "麓人甲包場精靈屋",
        "city": "屏東縣",
        "district": "墾丁 (恆春鎮)",
        "region": "屏東縣墾丁 (恆春鎮)",
        "url": "https://asiayo.com/zh-tw/view/tw/pingtung-county/39771/?tags=camping&isFromPropertyPage=true/",
        "latitude": 22.04175098,
        "longitude": 120.71242287,
        "type": 2,
        "disabled": 0,
        "bnbType": "露營區"
    },
    {
        "code": 39800,
        "name": "桃樂絲露營區",
        "city": "苗栗縣",
        "district": "公館鄉",
        "region": "苗栗縣公館鄉",
        "url": "https://asiayo.com/zh-tw/view/tw/miaoli-county/39800/?tags=camping&isFromPropertyPage=true/",
        "latitude": 24.5462114,
        "longitude": 120.8409905,
        "type": 2,
        "disabled": 0,
        "bnbType": "露營區"
    },
    {
        "code": 39850,
        "name": "朵娜朵露營區donato glamping",
        "city": "南投縣",
        "district": "仁愛鄉",
        "region": "南投縣仁愛鄉",
        "url": "https://asiayo.com/zh-tw/view/tw/nantou-county/39850/?tags=camping&isFromPropertyPage=true/",
        "latitude": 24.044763,
        "longitude": 121.159218,
        "type": 2,
        "disabled": 0,
        "bnbType": "露營區"
    },
    {
        "code": 39864,
        "name": "野趣凍頂-奢華露營",
        "city": "南投縣",
        "district": "鹿谷鄉",
        "region": "南投縣鹿谷鄉",
        "url": "https://asiayo.com/zh-tw/view/tw/nantou-county/39864/?tags=camping&isFromPropertyPage=true/",
        "latitude": 23.74622607,
        "longitude": 120.76352097,
        "type": 2,
        "disabled": 0,
        "bnbType": "露營區"
    },
    {
        "code": 40042,
        "name": "苗栗三義依杉林露營區",
        "city": "苗栗縣",
        "district": "銅鑼鄉",
        "region": "苗栗縣銅鑼鄉",
        "url": "https://asiayo.com/zh-tw/view/tw/miaoli-county/40042/?tags=camping&isFromPropertyPage=true/",
        "latitude": 24.4234254,
        "longitude": 120.8057064,
        "type": 1,
        "disabled": 0,
        "bnbType": "露營區"
    },
    {
        "code": 40101,
        "name": "水玉妮光GC",
        "city": "苗栗縣",
        "district": "卓蘭鎮",
        "region": "苗栗縣卓蘭鎮",
        "url": "https://asiayo.com/zh-tw/view/tw/miaoli-county/40101/?tags=camping&isFromPropertyPage=true/",
        "latitude": 24.332532,
        "longitude": 120.8178253,
        "type": 1,
        "disabled": 0,
        "bnbType": "露營區"
    },
    {
        "code": 40272,
        "name": "彩虹星光農園露營區",
        "city": "台中市",
        "district": "石岡區",
        "region": "台中市石岡區",
        "url": "https://asiayo.com/zh-tw/view/tw/taichung-city/40272/?tags=camping&isFromPropertyPage=true/",
        "latitude": 24.2707017,
        "longitude": 120.7833786,
        "type": 1,
        "disabled": 0,
        "bnbType": "露營區"
    },
    {
        "code": 40274,
        "name": "樹語星晴（本館）",
        "city": "苗栗縣",
        "district": "公館鄉",
        "region": "苗栗縣公館鄉",
        "url": "https://asiayo.com/zh-tw/view/tw/miaoli-county/40274/?tags=camping&isFromPropertyPage=true/",
        "latitude": 24.4830556,
        "longitude": 120.8388889,
        "type": 2,
        "disabled": 0,
        "bnbType": "露營區"
    },
    {
        "code": 40364,
        "name": "衝到山上去放空民宿露營區",
        "city": "苗栗縣",
        "district": "公館鄉",
        "region": "苗栗縣公館鄉",
        "url": "https://asiayo.com/zh-tw/view/tw/miaoli-county/40364/?tags=camping&isFromPropertyPage=true/",
        "latitude": 24.48404591,
        "longitude": 120.83839947,
        "type": 2,
        "disabled": 0,
        "bnbType": "露營區"
    },
    {
        "code": 40446,
        "name": "斷橋部落．輕奢露營",
        "city": "苗栗縣",
        "district": "三義鄉",
        "region": "苗栗縣三義鄉",
        "url": "https://asiayo.com/zh-tw/view/tw/miaoli-county/40446/?tags=camping&isFromPropertyPage=true/",
        "latitude": 24.3554757,
        "longitude": 120.7744344,
        "type": 2,
        "disabled": 0,
        "bnbType": "露營區"
    },
    {
        "code": 40472,
        "name": "希望之丘露營區",
        "city": "宜蘭縣",
        "district": "冬山鄉",
        "region": "宜蘭縣冬山鄉",
        "url": "https://asiayo.com/zh-tw/view/tw/yilan-county/40472/?tags=camping&isFromPropertyPage=true/",
        "latitude": 24.6336409,
        "longitude": 121.7246153,
        "type": 2,
        "disabled": 0,
        "bnbType": "露營區"
    },
    {
        "code": 40499,
        "name": "那山那谷",
        "city": "宜蘭縣",
        "district": "南澳鄉",
        "region": "宜蘭縣南澳鄉",
        "url": "https://asiayo.com/zh-tw/view/tw/yilan-county/40499/?tags=camping&isFromPropertyPage=true/",
        "latitude": 24.4365633,
        "longitude": 121.749354,
        "type": 2,
        "disabled": 0,
        "bnbType": "露營區"
    },
    {
        "code": 40504,
        "name": "三芝老農夫農場",
        "city": "新北市",
        "district": "三芝區",
        "region": "新北市三芝區",
        "url": "https://asiayo.com/zh-tw/view/tw/new-taipei-city/40504/?tags=camping&isFromPropertyPage=true/",
        "latitude": 25.2445207,
        "longitude": 121.464282,
        "type": 2,
        "disabled": 0,
        "bnbType": "露營區"
    },
    {
        "code": 40516,
        "name": "峇嵐杉丘 奢華露營",
        "city": "南投縣",
        "district": "魚池鄉",
        "region": "南投縣魚池鄉",
        "url": "https://asiayo.com/zh-tw/view/tw/nantou-county/40516/?tags=camping&isFromPropertyPage=true/",
        "latitude": 23.8896273,
        "longitude": 120.9213643,
        "type": 2,
        "disabled": 0,
        "bnbType": "露營區"
    },
    {
        "code": 40565,
        "name": "漫度漁光",
        "city": "台南市",
        "district": "安平區",
        "region": "台南市安平區",
        "url": "https://asiayo.com/zh-tw/view/tw/tainan-city/40565/?tags=camping&isFromPropertyPage=true/",
        "latitude": 22.9860558,
        "longitude": 120.1587166,
        "type": 2,
        "disabled": 0,
        "bnbType": "露營區"
    },
    {
        "code": 40573,
        "name": "荒野半島露營區",
        "city": "苗栗縣",
        "district": "頭屋鄉",
        "region": "苗栗縣頭屋鄉",
        "url": "https://asiayo.com/zh-tw/view/tw/miaoli-county/40573/?tags=camping&isFromPropertyPage=true/",
        "latitude": 24.5836172,
        "longitude": 120.8974887,
        "type": 2,
        "disabled": 0,
        "bnbType": "露營區"
    },
    {
        "code": 40674,
        "name": "海放你基地 Have Funny Base",
        "city": "花蓮縣",
        "district": "豐濱鄉",
        "region": "花蓮縣豐濱鄉",
        "url": "https://asiayo.com/zh-tw/view/tw/hualien-county/40674/?tags=camping&isFromPropertyPage=true/",
        "latitude": 23.6131676,
        "longitude": 121.5285056,
        "type": 2,
        "disabled": 0,
        "bnbType": "露營區"
    },
    {
        "code": 40718,
        "name": "悠野's露營區",
        "city": "新竹縣",
        "district": "尖石鄉",
        "region": "新竹縣尖石鄉",
        "url": "https://asiayo.com/zh-tw/view/tw/hsinchu-county/40718/?tags=camping&isFromPropertyPage=true/",
        "latitude": 24.7089438,
        "longitude": 121.2680607,
        "type": 2,
        "disabled": 0,
        "bnbType": "露營區"
    },
    {
        "code": 40855,
        "name": "朋趣 Bon Chill Glamping",
        "city": "桃園市",
        "district": "龍潭區",
        "region": "桃園市龍潭區",
        "url": "https://asiayo.com/zh-tw/view/tw/taoyuan-city/40855/?tags=camping&isFromPropertyPage=true/",
        "latitude": 24.869648,
        "longitude": 121.2478822,
        "type": 2,
        "disabled": 0,
        "bnbType": "露營區"
    },
    {
        "code": 41599,
        "name": "花鳥蟲鳴高山露營區",
        "city": "南投縣",
        "district": "仁愛鄉",
        "region": "南投縣仁愛鄉",
        "url": "https://asiayo.com/zh-tw/view/tw/nantou-county/41599/?tags=camping&isFromPropertyPage=true/",
        "latitude": 24.07480122,
        "longitude": 121.17140069,
        "type": 2,
        "disabled": 0,
        "bnbType": "露營區"
    },
    {
        "code": 41790,
        "name": "呆呆的家-免搭帳露營",
        "city": "台中市",
        "district": "和平區",
        "region": "台中市和平區",
        "url": "https://asiayo.com/zh-tw/view/tw/taichung-city/41790/?tags=camping&isFromPropertyPage=true/",
        "latitude": 24.1690852,
        "longitude": 120.9583226,
        "type": 2,
        "disabled": 0,
        "bnbType": "露營區"
    },
    {
        "code": 42123,
        "name": "地熱旅居",
        "city": "宜蘭縣",
        "district": "大同鄉",
        "region": "宜蘭縣大同鄉",
        "url": "https://asiayo.com/zh-tw/view/tw/yilan-county/42123/?tags=camping&isFromPropertyPage=true/",
        "latitude": 24.6319739,
        "longitude": 121.6086561,
        "type": 2,
        "disabled": 0,
        "bnbType": "露營區"
    },
    {
        "code": 42185,
        "name": "曉晴星空露營地",
        "city": "台東縣",
        "district": "長濱鄉",
        "region": "台東縣長濱鄉",
        "url": "https://asiayo.com/zh-tw/view/tw/taitung-county/42185/?tags=camping&isFromPropertyPage=true/",
        "latitude": 23.2414863,
        "longitude": 121.4161051,
        "type": 2,
        "disabled": 0,
        "bnbType": "露營區"
    },
    {
        "code": 42487,
        "name": "柚香露露野樂地 Yio au Champ",
        "city": "苗栗縣",
        "district": "銅鑼鄉",
        "region": "苗栗縣銅鑼鄉",
        "url": "https://asiayo.com/zh-tw/view/tw/miaoli-county/42487/?tags=camping&isFromPropertyPage=true/",
        "latitude": 24.5318856,
        "longitude": 120.8055288,
        "type": 2,
        "disabled": 0,
        "bnbType": "露營區"
    },
    {
        "code": 43993,
        "name": "天ㄟ露營車",
        "city": "宜蘭縣",
        "district": "冬山鄉",
        "region": "宜蘭縣冬山鄉",
        "url": "https://asiayo.com/zh-tw/view/tw/yilan-county/43993/?tags=camping&isFromPropertyPage=true/",
        "latitude": 24.645634,
        "longitude": 121.732634,
        "type": 2,
        "disabled": 0,
        "bnbType": "露營區"
    },
    {
        "code": 44019,
        "name": "趣兒chill:藍鵲菲菲",
        "city": "台北市",
        "district": "士林區",
        "region": "台北市士林區",
        "url": "https://asiayo.com/zh-tw/view/tw/taipei-city/44019/?tags=camping&isFromPropertyPage=true/",
        "latitude": 25.1521217,
        "longitude": 121.5585331,
        "type": 2,
        "disabled": 0,
        "bnbType": "露營區"
    },
    {
        "code": 44024,
        "name": "溫德莊園",
        "city": "高雄市",
        "district": "六龜區",
        "region": "高雄市六龜區",
        "url": "https://asiayo.com/zh-tw/view/tw/kaohsiung-city/44024/?tags=camping&isFromPropertyPage=true/",
        "latitude": 23.0553765,
        "longitude": 120.6768615,
        "type": 2,
        "disabled": 0,
        "bnbType": "露營區"
    },
    {
        "code": 44200,
        "name": "飛鳥恰恰 Outdoorbase Experience",
        "city": "新竹縣",
        "district": "五峰鄉",
        "region": "新竹縣五峰鄉",
        "url": "https://asiayo.com/zh-tw/view/tw/hsinchu-county/44200/?tags=camping&isFromPropertyPage=true/",
        "latitude": 24.6578627,
        "longitude": 121.1728902,
        "type": 2,
        "disabled": 0,
        "bnbType": "露營區"
    },
    {
        "code": 44292,
        "name": "蟬說: 夕陽漫漫 Slowly Sunset Glamping",
        "city": "台中市",
        "district": "清水區",
        "region": "台中市清水區",
        "url": "https://asiayo.com/zh-tw/view/tw/taichung-city/44292/?tags=camping&isFromPropertyPage=true/",
        "latitude": 24.3052935,
        "longitude": 120.5476094,
        "type": 2,
        "disabled": 0,
        "bnbType": "露營區"
    },
    {
        "code": 44343,
        "name": "只今漫漫 里山露營｜風格旅宿",
        "city": "苗栗縣",
        "district": "西湖鄉",
        "region": "苗栗縣西湖鄉",
        "url": "https://asiayo.com/zh-tw/view/tw/miaoli-county/44343/?tags=camping&isFromPropertyPage=true/",
        "latitude": 24.4990361,
        "longitude": 120.7705941,
        "type": 2,
        "disabled": 0,
        "bnbType": "露營區"
    },
    {
        "code": 44494,
        "name": "日月潭村自然Glamping",
        "city": "南投縣",
        "district": "魚池鄉",
        "region": "南投縣魚池鄉",
        "url": "https://asiayo.com/zh-tw/view/tw/nantou-county/44494/?tags=camping&isFromPropertyPage=true/",
        "latitude": 23.8210261,
        "longitude": 120.9059302,
        "type": 2,
        "disabled": 0,
        "bnbType": "露營區"
    },
    {
        "code": 44639,
        "name": "浮岸別境(Buan Byacing.)",
        "city": "苗栗縣",
        "district": "泰安鄉",
        "region": "苗栗縣泰安鄉",
        "url": "https://asiayo.com/zh-tw/view/tw/miaoli-county/44639/?tags=camping&isFromPropertyPage=true/",
        "latitude": 24.4075597,
        "longitude": 120.9384924,
        "type": 2,
        "disabled": 0,
        "bnbType": "露營區"
    },
    {
        "code": 44847,
        "name": "向海那漾 Nayang Beach",
        "city": "台中市",
        "district": "大安區",
        "region": "台中市大安區",
        "url": "https://asiayo.com/zh-tw/view/tw/taichung-city/44847/?tags=camping&isFromPropertyPage=true/",
        "latitude": 24.3835992,
        "longitude": 120.5854224,
        "type": 2,
        "disabled": 0,
        "bnbType": "露營區"
    },
    {
        "code": 44849,
        "name": "清水那方 遊憩園地",
        "city": "彰化縣",
        "district": "社頭鄉",
        "region": "彰化縣社頭鄉",
        "url": "https://asiayo.com/zh-tw/view/tw/changhua-county/44849/?tags=camping&isFromPropertyPage=true/",
        "latitude": 23.8845844,
        "longitude": 120.6089853,
        "type": 2,
        "disabled": 0,
        "bnbType": "露營區"
    },
    {
        "code": 44961,
        "name": "蟬說: 霧繞 Chanshuo Woorao glamping",
        "city": "新竹縣",
        "district": "五峰鄉",
        "region": "新竹縣五峰鄉",
        "url": "https://asiayo.com/zh-tw/view/tw/hsinchu-county/44961/?tags=camping&isFromPropertyPage=true/",
        "latitude": 24.5772603,
        "longitude": 121.0947833,
        "type": 2,
        "disabled": 0,
        "bnbType": "露營區"
    },
    {
        "code": 44974,
        "name": "蟬說: 霧語 Chanshuo WooYuu",
        "city": "新竹縣",
        "district": "五峰鄉",
        "region": "新竹縣五峰鄉",
        "url": "https://asiayo.com/zh-tw/view/tw/hsinchu-county/44974/?tags=camping&isFromPropertyPage=true/",
        "latitude": 24.5844976,
        "longitude": 121.0822307,
        "type": 2,
        "disabled": 0,
        "bnbType": "露營區"
    },
    {
        "code": 45088,
        "name": "川夏野奢露營區",
        "city": "苗栗縣",
        "district": "南庄鄉",
        "region": "苗栗縣南庄鄉",
        "url": "https://asiayo.com/zh-tw/view/tw/miaoli-county/45088/?tags=camping&isFromPropertyPage=true/",
        "latitude": 24.5740028,
        "longitude": 120.9853145,
        "type": 2,
        "disabled": 0,
        "bnbType": "露營區"
    },
    {
        "code": 45130,
        "name": "基路伯營區",
        "city": "南投縣",
        "district": "仁愛鄉",
        "region": "南投縣仁愛鄉",
        "url": "https://asiayo.com/zh-tw/view/tw/nantou-county/45130/?tags=camping&isFromPropertyPage=true/",
        "latitude": 24.03388817,
        "longitude": 121.14192927,
        "type": 2,
        "disabled": 1,
        "bnbType": "民宿 / 公寓"
    },
    {
        "code": 45317,
        "name": "嶼野山隱yuye shanyin camping",
        "city": "屏東縣",
        "district": "琉球鄉 (小琉球)",
        "region": "屏東縣琉球鄉 (小琉球)",
        "url": "https://asiayo.com/zh-tw/view/tw/pingtung-county/45317/?tags=camping&isFromPropertyPage=true/",
        "latitude": 22.34134367,
        "longitude": 120.37306365,
        "type": 0,
        "disabled": 0,
        "bnbType": "露營區"
    },
    {
        "code": 45882,
        "name": "茶野裡 山野露營（桃園蘆竹營區）",
        "city": "桃園市",
        "district": "蘆竹區",
        "region": "桃園市蘆竹區",
        "url": "https://asiayo.com/zh-tw/view/tw/taoyuan-city/45882/?tags=camping&isFromPropertyPage=true/",
        "latitude": 25.0789278,
        "longitude": 121.3323081,
        "type": 2,
        "disabled": 0,
        "bnbType": "露營區"
    },
    {
        "code": 47145,
        "name": "陌野露營車驛站",
        "city": "南投縣",
        "district": "魚池鄉",
        "region": "南投縣魚池鄉",
        "url": "https://asiayo.com/zh-tw/view/tw/nantou-county/47145/?tags=camping&isFromPropertyPage=true/",
        "latitude": 23.8669415,
        "longitude": 120.9067058,
        "type": 2,
        "disabled": 0,
        "bnbType": "露營區"
    },
    {
        "code": 48735,
        "name": "百崴露營區",
        "city": "新竹縣",
        "district": "橫山鄉",
        "region": "新竹縣橫山鄉",
        "url": "https://asiayo.com/zh-tw/view/tw/hsinchu-county/48735/?tags=camping&isFromPropertyPage=true/",
        "latitude": 24.7431863,
        "longitude": 121.162304,
        "type": 2,
        "disabled": 0,
        "bnbType": "露營區"
    },
    {
        "code": 48827,
        "name": "小日子露營區",
        "city": "苗栗縣",
        "district": "公館鄉",
        "region": "苗栗縣公館鄉",
        "url": "https://asiayo.com/zh-tw/view/tw/miaoli-county/48827/?tags=camping&isFromPropertyPage=true/",
        "latitude": 24.54052431,
        "longitude": 120.84234498,
        "type": 2,
        "disabled": 0,
        "bnbType": "露營區"
    },
    {
        "code": 48879,
        "name": "灣東日出露營拖車",
        "city": "宜蘭縣",
        "district": "蘇澳鎮",
        "region": "宜蘭縣蘇澳鎮",
        "url": "https://asiayo.com/zh-tw/view/tw/yilan-county/48879/?tags=camping&isFromPropertyPage=true/",
        "latitude": 24.51370638,
        "longitude": 121.83859204,
        "type": 2,
        "disabled": 0,
        "bnbType": "露營區"
    },
    {
        "code": 49158,
        "name": "茶野裡 山野露營（南投清境小瑞士花園營區）",
        "city": "南投縣",
        "district": "仁愛鄉",
        "region": "南投縣仁愛鄉",
        "url": "https://asiayo.com/zh-tw/view/tw/nantou-county/49158/?tags=camping&isFromPropertyPage=true/",
        "latitude": 24.045697,
        "longitude": 121.157331,
        "type": 2,
        "disabled": 0,
        "bnbType": "露營區"
    },
    {
        "code": 49214,
        "name": "歸樸森活露營區",
        "city": "嘉義縣",
        "district": "番路鄉",
        "region": "嘉義縣番路鄉",
        "url": "https://asiayo.com/zh-tw/view/tw/chiayi-county/49214/?tags=camping&isFromPropertyPage=true/",
        "latitude": 23.45597948,
        "longitude": 120.55329364,
        "type": 2,
        "disabled": 0,
        "bnbType": "露營區"
    },
    {
        "code": 50059,
        "name": "茶野裡 山野露營（南投龍泉營區） ",
        "city": "南投縣",
        "district": "埔里鎮",
        "region": "南投縣埔里鎮",
        "url": "https://asiayo.com/zh-tw/view/tw/nantou-county/50059/?tags=camping&isFromPropertyPage=true/",
        "latitude": 23.92600069,
        "longitude": 121.00358932,
        "type": 2,
        "disabled": 0,
        "bnbType": "露營區"
    },
    {
        "code": 50733,
        "name": "南投埔里民宿 葉子祕境 YATS 森林系Villa",
        "city": "南投縣",
        "district": "埔里鎮",
        "region": "南投縣埔里鎮",
        "url": "https://asiayo.com/zh-tw/view/tw/nantou-county/50733/?tags=camping&isFromPropertyPage=true/",
        "latitude": 23.95101,
        "longitude": 120.9124951,
        "type": 2,
        "disabled": 0,
        "bnbType": "露營區"
    },
    {
        "code": 51317,
        "name": "花蓮壽豐米棧度假莊園",
        "city": "花蓮縣",
        "district": "壽豐鄉",
        "region": "花蓮縣壽豐鄉",
        "url": "https://asiayo.com/zh-tw/view/tw/hualien-county/51317/?tags=camping&isFromPropertyPage=true/",
        "latitude": 23.819172,
        "longitude": 121.5285856,
        "type": 2,
        "disabled": 0,
        "bnbType": "露營區"
    }
]