[
    {
        "code": 8379,
        "name": "小樹露營屋、自搭帳",
        "city": "台中市",
        "district": "新社區",
        "url": "https://asiayo.com/zh-tw/view/tw/taichung-city/8379/?tags=camping&isFromPropertyPage=true/",
        "latitude": 24.1956103,
        "longitude": 120.8108361,
        "type": 0,
        "disabled": 1,
        "bnbType": "露營區"
    },
    {
        "code": 10594,
        "name": "空中邊境｜豪華露營、無敵百萬夜景／免費停車場／兒童遊戲區",
        "city": "南投縣",
        "district": "竹山鎮",
        "url": "https://asiayo.com/zh-tw/view/tw/nantou-county/10594/?tags=camping&isFromPropertyPage=true/",
        "latitude": 23.698542,
        "longitude": 120.713391,
        "type": 2,
        "disabled": 1,
        "bnbType": "民宿 / 公寓"
    },
    {
        "code": 15697,
        "name": "工匠家小木屋民宿｜可選購露營車房型",
        "city": "宜蘭縣",
        "district": "頭城鎮",
        "url": "https://asiayo.com/zh-tw/view/tw/yilan-county/15697/?tags=camping&isFromPropertyPage=true/",
        "latitude": 24.837677,
        "longitude": 121.799431,
        "type": 2,
        "disabled": 1,
        "bnbType": "民宿 / 公寓"
    },
    {
        "code": 25632,
        "name": "好漾民宿露營車 | 可6人包棟 | 寵物友善x戶外大空間",
        "city": "宜蘭縣",
        "district": "羅東鎮",
        "url": "https://asiayo.com/zh-tw/view/tw/yilan-county/25632/?tags=camping&isFromPropertyPage=true/",
        "latitude": 24.690166,
        "longitude": 121.761341,
        "type": 2,
        "disabled": 1,
        "bnbType": "民宿 / 公寓"
    },
    {
        "code": 28998,
        "name": "苗栗鹿場850 木屋民宿｜可4-14人包棟 | 露營野趣",
        "city": "苗栗縣",
        "district": "南庄鄉",
        "url": "https://asiayo.com/zh-tw/view/tw/miaoli-county/28998/?tags=camping&isFromPropertyPage=true/",
        "latitude": 24.5419369,
        "longitude": 121.02813046,
        "type": 0,
        "disabled": 1,
        "bnbType": "民宿 / 公寓"
    },
    {
        "code": 34503,
        "name": "踏浪星辰露營Camp｜晚鳥優惠95折！海景豪華露營+附早餐",
        "city": "花蓮縣",
        "district": "新城鄉",
        "url": "https://asiayo.com/zh-tw/view/tw/hualien-county/34503/?tags=camping&isFromPropertyPage=true/",
        "latitude": 24.02570644,
        "longitude": 121.63183482,
        "type": 2,
        "disabled": 0,
        "bnbType": "露營區",
        "same_name": "踏浪星辰豪華露營Camp"
    },
    {
        "code": 36860,
        "name": "灥流｜清境唯一蒙古包住宿",
        "city": "南投縣",
        "district": "仁愛鄉",
        "url": "https://asiayo.com/zh-tw/view/tw/nantou-county/36860/?tags=camping&isFromPropertyPage=true/",
        "latitude": 24.0379797,
        "longitude": 121.1578715,
        "type": 4,
        "disabled": 0,
        "bnbType": "露營區"
    },
    {
        "code": 37719,
        "name": "晃晃印地安露營區｜神殿帳、附早餐、戲水池",
        "city": "桃園市",
        "district": "龍潭區",
        "url": "https://asiayo.com/zh-tw/view/tw/taoyuan-city/37719/?tags=camping&isFromPropertyPage=true/",
        "latitude": 24.8555769,
        "longitude": 121.2439967,
        "type": 2,
        "disabled": 0,
        "bnbType": "露營區",
        "same_name": "晃晃印地安帳篷露營區"
    },
    {
        "code": 37908,
        "name": "遠山望月溫泉露營區｜獨家晚鳥75折起！寶來狩獵帳露營車、附早餐！",
        "city": "高雄市",
        "district": "六龜區",
        "url": "https://asiayo.com/zh-tw/view/tw/kaohsiung-city/37908/?tags=camping&isFromPropertyPage=true/",
        "latitude": 23.1077039,
        "longitude": 120.70309455,
        "type": 2,
        "disabled": 0,
        "bnbType": "露營區",
        "same_name": "遠山望月溫泉風呂 露營區"
    },
    {
        "code": 38896,
        "name": "遊橘露營區",
        "city": "新竹縣",
        "district": "橫山鄉",
        "url": "https://asiayo.com/zh-tw/view/tw/hsinchu-county/38896/?tags=camping&isFromPropertyPage=true/",
        "latitude": 24.726584,
        "longitude": 121.16246,
        "type": 4,
        "disabled": 0,
        "bnbType": "露營區"
    },
    {
        "code": 38990,
        "name": "布萊頓霍夫莊園｜可選購海景豪華露營車",
        "city": "花蓮縣",
        "district": "壽豐鄉",
        "url": "https://asiayo.com/zh-tw/view/tw/hualien-county/38990/?tags=camping&isFromPropertyPage=true/",
        "latitude": 23.8987355,
        "longitude": 121.6036195,
        "type": 2,
        "disabled": 1,
        "bnbType": "飯店"
    },
    {
        "code": 38992,
        "name": "墾丁後壁湖露營車｜平日87折！近海邊、獨立小庭院",
        "city": "屏東縣",
        "district": "墾丁 (恆春鎮)",
        "url": "https://asiayo.com/zh-tw/view/tw/pingtung-county/38992/?tags=camping&isFromPropertyPage=true/",
        "latitude": 21.9481416,
        "longitude": 120.7434251,
        "type": 2,
        "disabled": 0,
        "bnbType": "露營區",
        "same_name": "後壁湖露營車民宿"
    },
    {
        "code": 39129,
        "name": "愛上喜翁｜櫻花季搶先開賣！一泊二食獨家方案",
        "city": "新竹縣",
        "district": "五峰鄉",
        "url": "https://asiayo.com/zh-tw/view/tw/hsinchu-county/39129/?tags=camping&isFromPropertyPage=true/",
        "latitude": 24.5908476,
        "longitude": 121.1289742,
        "type": 4,
        "disabled": 0,
        "bnbType": "露營區"
    },
    {
        "code": 39143,
        "name": "空中邊境露營區｜無敵百萬夜景、免費停車場、兒童遊戲區",
        "city": "南投縣",
        "district": "竹山鎮",
        "url": "https://asiayo.com/zh-tw/view/tw/nantou-county/39143/?tags=camping&isFromPropertyPage=true/",
        "latitude": 23.6984694,
        "longitude": 120.7134601,
        "type": 4,
        "disabled": 0,
        "bnbType": "露營區"
    },
    {
        "code": 39172,
        "name": "英台牧場露營區-油桐花秘境",
        "city": "苗栗縣",
        "district": "苗栗市",
        "url": "https://asiayo.com/zh-tw/view/tw/miaoli-county/39172/?tags=camping&isFromPropertyPage=true/",
        "latitude": 24.5609538,
        "longitude": 120.8169081,
        "type": 1,
        "disabled": 0,
        "bnbType": "露營區",
        "same_name": "英台休閒牧場"
    },
    {
        "code": 39216,
        "name": "安農露營區｜附露營車、自搭帳、游泳池",
        "city": "宜蘭縣",
        "district": "三星鄉",
        "url": "https://asiayo.com/zh-tw/view/tw/yilan-county/39216/?tags=camping&isFromPropertyPage=true/",
        "latitude": 24.65565644,
        "longitude": 121.64790127,
        "type": 3,
        "disabled": 0,
        "bnbType": "露營區",
        "same_name": "三星鄉立游泳池（安農露營區）"
    },
    {
        "code": 39217,
        "name": "野石森林露營區",
        "city": "宜蘭縣",
        "district": "大同鄉",
        "url": "https://asiayo.com/zh-tw/view/tw/yilan-county/39217/?tags=camping&isFromPropertyPage=true/",
        "latitude": 24.61025711,
        "longitude": 121.68937062,
        "type": 1,
        "disabled": 0,
        "bnbType": "露營區",
        "same_name": "野石森林 露營區"
    },
    {
        "code": 39219,
        "name": "太平山森活趣渡假農場 | 露營車、免裝備露營、全新楓林房型",
        "city": "宜蘭縣",
        "district": "大同鄉",
        "url": "https://asiayo.com/zh-tw/view/tw/yilan-county/39219/?tags=camping&isFromPropertyPage=true/",
        "latitude": 24.5218567,
        "longitude": 121.4474264,
        "type": 4,
        "disabled": 0,
        "bnbType": "露營區"
    },
    {
        "code": 39225,
        "name": "森林蜂味露營區｜提供裝備租借方案",
        "city": "南投縣",
        "district": "埔里鎮",
        "url": "https://asiayo.com/zh-tw/view/tw/nantou-county/39225/?tags=camping&isFromPropertyPage=true/",
        "latitude": 23.9417932,
        "longitude": 120.9249079,
        "type": 1,
        "disabled": 0,
        "bnbType": "露營區",
        "same_name": "森林蜂味露營區"
    },
    {
        "code": 39226,
        "name": "緣溪行森林營地｜一泊二食送迎賓點心、親子友善",
        "city": "南投縣",
        "district": "埔里鎮",
        "url": "https://asiayo.com/zh-tw/view/tw/nantou-county/39226/?tags=camping&isFromPropertyPage=true/",
        "latitude": 23.9769115,
        "longitude": 120.9896643,
        "type": 2,
        "disabled": 0,
        "bnbType": "露營區",
        "same_name": "緣溪行森林營地"
    },
    {
        "code": 39261,
        "name": "田野森農場｜包區豪華露營一泊二食、附冷氣獨立衛浴",
        "city": "宜蘭縣",
        "district": "冬山鄉",
        "url": "https://asiayo.com/zh-tw/view/tw/yilan-county/39261/?tags=camping&isFromPropertyPage=true/",
        "latitude": 24.632949,
        "longitude": 121.720651,
        "type": 2,
        "disabled": 0,
        "bnbType": "露營區",
        "same_name": "田野森農場Morilife"
    },
    {
        "code": 39303,
        "name": "逗留營地 l",
        "city": "新竹縣",
        "district": "竹東鎮",
        "url": "https://asiayo.com/zh-tw/view/tw/hsinchu-county/39303/?tags=camping&isFromPropertyPage=true/",
        "latitude": 24.70056164,
        "longitude": 121.09689085,
        "type": 1,
        "disabled": 0,
        "bnbType": "露營區",
        "same_name": "逗留營地"
    },
    {
        "code": 39314,
        "name": "山思雲想｜獨家8折起！一泊四食、職人體驗",
        "city": "南投縣",
        "district": "竹山鎮",
        "url": "https://asiayo.com/zh-tw/view/tw/nantou-county/39314/?tags=camping&isFromPropertyPage=true/",
        "latitude": 23.6970962,
        "longitude": 120.7129014,
        "type": 2,
        "disabled": 0,
        "bnbType": "露營區",
        "same_name": "山思雲想"
    },
    {
        "code": 39316,
        "name": "Myasa-迷雅薩休閒農莊露營區",
        "city": "宜蘭縣",
        "district": "南澳鄉",
        "url": "https://asiayo.com/zh-tw/view/tw/yilan-county/39316/?tags=camping&isFromPropertyPage=true/",
        "latitude": 24.46358544,
        "longitude": 121.78668632,
        "type": 4,
        "disabled": 0,
        "bnbType": "露營區"
    },
    {
        "code": 39320,
        "name": "社寮角露營區｜採草莓、螢火蟲導覽",
        "city": "苗栗縣",
        "district": "大湖鄉",
        "url": "https://asiayo.com/zh-tw/view/tw/miaoli-county/39320/?tags=camping&isFromPropertyPage=true/",
        "latitude": 24.4276104,
        "longitude": 120.88067631,
        "type": 1,
        "disabled": 0,
        "bnbType": "露營區",
        "same_name": "社寮角露營區"
    },
    {
        "code": 39322,
        "name": "黑屋CAMP｜日式露營車、特色木屋、鯉魚潭湖畔",
        "city": "花蓮縣",
        "district": "壽豐鄉",
        "region": "花蓮縣壽豐鄉",
        "url": "https://asiayo.com/zh-tw/view/tw/hualien-county/39322/?tags=camping&isFromPropertyPage=true/",
        "latitude": 23.9330246,
        "longitude": 121.5071141,
        "type": 4,
        "disabled": 0,
        "bnbType": "露營區"
    },
    {
        "code": 39331,
        "name": "山川密境露營區｜親子露營、山林戲水池、沙坑",
        "city": "苗栗縣",
        "district": "苗栗市",
        "region": "苗栗縣苗栗市",
        "url": "https://asiayo.com/zh-tw/view/tw/miaoli-county/39331/?tags=camping&isFromPropertyPage=true/",
        "latitude": 24.59566454,
        "longitude": 121.01891827,
        "type": 3,
        "disabled": 0,
        "bnbType": "露營區",
        "same_name": "山川密境露營區"
    },
    {
        "code": 39334,
        "name": "三生園生態露營區｜草皮營位、五星級浴廁",
        "city": "南投縣",
        "district": "鹿谷鄉",
        "url": "https://asiayo.com/zh-tw/view/tw/nantou-county/39334/?tags=camping&isFromPropertyPage=true/",
        "latitude": 23.7260582,
        "longitude": 120.776549,
        "type": 1,
        "disabled": 0,
        "bnbType": "露營區",
        "same_name": "三生園生態露營區"
    },
    {
        "code": 39348,
        "name": "山裡面的嵐卡｜一帳一區祕境露營、可加購餐點",
        "city": "南投縣",
        "district": "信義鄉",
        "url": "https://asiayo.com/zh-tw/view/tw/nantou-county/39348/?tags=camping&isFromPropertyPage=true/",
        "latitude": 23.7943056,
        "longitude": 120.96325,
        "type": 4,
        "disabled": 0,
        "bnbType": "露營區"
    },
    {
        "code": 39349,
        "name": "畢瓦客｜免裝備露營+日月潭SUP、一泊二食",
        "city": "南投縣",
        "district": "魚池鄉",
        "region": "南投縣魚池鄉",
        "url": "https://asiayo.com/zh-tw/view/tw/nantou-county/39349/?tags=camping&isFromPropertyPage=true/",
        "latitude": 23.8670377,
        "longitude": 120.9040157,
        "type": 2,
        "disabled": 0,
        "bnbType": "露營區",
        "same_name": "畢瓦客"
    },
    {
        "code": 39373,
        "name": "白鹿營區｜親子首選、高 CP 值彩色合掌屋",
        "city": "南投縣",
        "district": "魚池鄉",
        "url": "https://asiayo.com/zh-tw/view/tw/nantou-county/39373/?tags=camping&isFromPropertyPage=true/",
        "latitude": 23.883603,
        "longitude": 120.920693,
        "type": 2,
        "disabled": 0,
        "bnbType": "露營區",
        "same_name": "日月潭白鹿營區"
    },
    {
        "code": 39383,
        "name": "白鹿窯莊園｜ 鄰近曰月潭、彩色露營屋",
        "city": "南投縣",
        "district": "魚池鄉",
        "url": "https://asiayo.com/zh-tw/view/tw/nantou-county/39383/?tags=camping&isFromPropertyPage=true/",
        "latitude": 23.90343162,
        "longitude": 120.92744689,
        "type": 2,
        "disabled": 0,
        "bnbType": "露營區",
        "same_name": "白鹿窯 木燒手工麵包・披薩"
    },
    {
        "code": 39385,
        "name": "拂水山莊｜可選購一泊二食、絕美神殿帳",
        "city": "南投縣",
        "district": "魚池鄉",
        "url": "https://asiayo.com/zh-tw/view/tw/nantou-county/39385/?tags=camping&isFromPropertyPage=true/",
        "latitude": 23.90376969,
        "longitude": 120.95865655,
        "type": 2,
        "disabled": 0,
        "bnbType": "露營區",
        "same_name": "拂水山莊"
    },
    {
        "code": 39395,
        "name": "新豐休閒農場｜平日8折！特色蒙古包露營、包棟小木屋",
        "city": "新竹縣",
        "district": "新豐鄉",
        "url": "https://asiayo.com/zh-tw/view/tw/hsinchu-county/39395/?tags=camping&isFromPropertyPage=true/",
        "latitude": 24.93504731,
        "longitude": 120.9954965,
        "type": 3,
        "disabled": 0,
        "bnbType": "露營區",
        "same_name": "新豐休閒農場"
    },
    {
        "code": 39396,
        "name": "見晴花園渡假山莊｜可選購樓中樓帳篷、露營車",
        "city": "南投縣",
        "district": "仁愛鄉",
        "url": "https://asiayo.com/zh-tw/view/tw/nantou-county/39396/?tags=camping&isFromPropertyPage=true/",
        "latitude": 24.0415579,
        "longitude": 121.1582995,
        "type": 4,
        "disabled": 1,
        "bnbType": "獨棟別墅"
    },
    {
        "code": 39399,
        "name": "山嵐謐靜露營民宿｜南投縣國姓鄉",
        "city": "南投縣",
        "district": "國姓鄉",
        "url": "https://asiayo.com/zh-tw/view/tw/nantou-county/39399/?tags=camping&isFromPropertyPage=true/",
        "latitude": 24.07547957,
        "longitude": 120.87718163,
        "type": 4,
        "disabled": 1,
        "bnbType": "民宿 / 公寓"
    },
    {
        "code": 39439,
        "name": "東風綠活｜懶人、新手露營區。免裝備輕鬆露營趣",
        "city": "宜蘭縣",
        "district": "冬山鄉",
        "url": "https://asiayo.com/zh-tw/view/tw/yilan-county/39439/?tags=camping&isFromPropertyPage=true/",
        "latitude": 24.6183044,
        "longitude": 121.7304403,
        "type": 2,
        "disabled": 0,
        "bnbType": "露營區",
        "same_name": "東風綠活 Oriental Green"
    },
    {
        "code": 39466,
        "name": "泰里埔露營區",
        "city": "新竹縣",
        "district": "尖石鄉",
        "url": "https://asiayo.com/zh-tw/view/tw/hsinchu-county/39466/?tags=camping&isFromPropertyPage=true/",
        "latitude": 24.6712211,
        "longitude": 121.2952729,
        "type": 1,
        "disabled": 0,
        "bnbType": "露營區",
        "same_name": "泰里埔露營區"
    },
    {
        "code": 39493,
        "name": "春友彩虹豪華露營｜獨家8折起！可選購一泊四食、擂茶體驗",
        "city": "苗栗縣",
        "district": "南庄鄉",
        "url": "https://asiayo.com/zh-tw/view/tw/miaoli-county/39493/?tags=camping&isFromPropertyPage=true/",
        "latitude": 24.613061,
        "longitude": 121.003811,
        "type": 2,
        "disabled": 0,
        "bnbType": "露營區",
        "same_name": "南庄 春友彩虹莊園 民宿 露營 餐廳 SpringYU B&B 鱘龍魚 鱒魚 南庄老街 苗栗住宿 神殿帳露營 (無提供包棟)"
    },
    {
        "code": 39517,
        "name": "都瑪斯民宿露營區",
        "city": "苗栗縣",
        "district": "泰安鄉",
        "url": "https://asiayo.com/zh-tw/view/tw/miaoli-county/39517/?tags=camping&isFromPropertyPage=true/",
        "latitude": 24.3838117,
        "longitude": 120.9691942,
        "type": 1,
        "disabled": 0,
        "bnbType": "露營區"
    },
    {
        "code": 39548,
        "name": "歐鄉莊園",
        "city": "彰化縣",
        "district": "員林市",
        "url": "https://asiayo.com/zh-tw/view/tw/changhua-county/39548/?tags=camping&isFromPropertyPage=true/",
        "latitude": 23.9721736,
        "longitude": 120.5653009,
        "type": 4,
        "disabled": 1,
        "bnbType": "民宿 / 公寓"
    },
    {
        "code": 39630,
        "name": "森渼原｜豪華露營、一泊三食",
        "city": "台中市",
        "district": "外埔區",
        "url": "https://asiayo.com/zh-tw/view/tw/taichung-city/39630/?tags=camping&isFromPropertyPage=true/",
        "latitude": 24.3295315,
        "longitude": 120.6204619,
        "type": 3,
        "disabled": 0,
        "bnbType": "露營區",
        "same_name": "森渼原 Alive Glamping Base"
    },
    {
        "code": 39683,
        "name": "微笑灣農場｜無邊際泳池、百萬夜景、景觀露營車",
        "city": "宜蘭縣",
        "district": "頭城鎮",
        "url": "https://asiayo.com/zh-tw/view/tw/yilan-county/39683/?tags=camping&isFromPropertyPage=true/",
        "latitude": 24.87812818,
        "longitude": 121.82564858,
        "type": 3,
        "disabled": 0,
        "bnbType": "露營區",
        "same_name": "微笑灣農場"
    },
    {
        "code": 39687,
        "name": "麗鴻的家｜合掌屋、玩具白沙池、親子釣魚池",
        "city": "南投縣",
        "district": "魚池鄉",
        "url": "https://asiayo.com/zh-tw/view/tw/nantou-county/39687/?tags=camping&isFromPropertyPage=true/",
        "latitude": 23.883603,
        "longitude": 120.920693,
        "type": 3,
        "disabled": 0,
        "bnbType": "露營區",
        "same_name": "日月潭麗鴻的家-住宿"
    },
    {
        "code": 39717,
        "name": "赫利豐岳露營區｜豪華星球帳、可愛迷你馬",
        "city": "苗栗縣",
        "district": "南庄鄉",
        "url": "https://asiayo.com/zh-tw/view/tw/miaoli-county/39717/?tags=camping&isFromPropertyPage=true/",
        "latitude": 24.60539237,
        "longitude": 120.99320602,
        "type": 3,
        "disabled": 0,
        "bnbType": "露營區",
        "same_name": "赫利豐岳露營區"
    },
    {
        "code": 39718,
        "name": "小琉球八海浬｜露營車、獨立庭院",
        "city": "屏東縣",
        "district": "琉球鄉 (小琉球)",
        "url": "https://asiayo.com/zh-tw/view/tw/pingtung-county/39718/?tags=camping&isFromPropertyPage=true/",
        "latitude": 22.34849181,
        "longitude": 120.38319529,
        "type": 2,
        "disabled": 0,
        "bnbType": "露營區",
        "same_name": "八海浬民宿"
    },
    {
        "code": 39771,
        "name": "墾丁\b麓人甲露營區｜超夯免裝備包區！",
        "city": "屏東縣",
        "district": "墾丁 (恆春鎮)",
        "url": "https://asiayo.com/zh-tw/view/tw/pingtung-county/39771/?tags=camping&isFromPropertyPage=true/",
        "latitude": 22.04175098,
        "longitude": 120.71242287,
        "type": 2,
        "disabled": 0,
        "bnbType": "露營區",
        "same_name": "麓人甲包場精靈屋"
    },
    {
        "code": 39800,
        "name": "桃樂絲露營區｜下訂並加營區LINE，免費升級一泊二食！",
        "city": "苗栗縣",
        "district": "公館鄉",
        "url": "https://asiayo.com/zh-tw/view/tw/miaoli-county/39800/?tags=camping&isFromPropertyPage=true/",
        "latitude": 24.5462114,
        "longitude": 120.8409905,
        "type": 2,
        "disabled": 0,
        "bnbType": "露營區",
        "same_name": "桃樂絲露營區"
    },
    {
        "code": 39850,
        "name": "朵娜朵露營區｜獨家晚鳥9折！清境免裝備露營、平日限定",
        "city": "南投縣",
        "district": "仁愛鄉",
        "url": "https://asiayo.com/zh-tw/view/tw/nantou-county/39850/?tags=camping&isFromPropertyPage=true/",
        "latitude": 24.044763,
        "longitude": 121.159218,
        "type": 2,
        "disabled": 0,
        "bnbType": "露營區",
        "same_name": "朵娜朵露營區donato glamping"
    },
    {
        "code": 39856,
        "name": "覓靜莊園｜免裝備高海拔、兒童遊樂設施！",
        "city": "台中市",
        "district": "和平區",
        "url": "https://asiayo.com/zh-tw/view/tw/taichung-city/39856/?tags=camping&isFromPropertyPage=true/",
        "latitude": 24.1640455,
        "longitude": 120.9520671,
        "type": 4,
        "disabled": 0,
        "bnbType": "露營區"
    },
    {
        "code": 39864,
        "name": "野趣凍頂-奢華露營｜春節初一至初四加碼抽獎活動/獨立衛浴",
        "city": "南投縣",
        "district": "鹿谷鄉",
        "url": "https://asiayo.com/zh-tw/view/tw/nantou-county/39864/?tags=camping&isFromPropertyPage=true/",
        "latitude": 23.74622607,
        "longitude": 120.76352097,
        "type": 2,
        "disabled": 0,
        "bnbType": "露營區",
        "same_name": "野趣凍頂-奢華露營"
    },
    {
        "code": 39866,
        "name": "卡爾小鎮｜早鳥八折起！清境星空露營車、星空夢幻帳",
        "city": "南投縣",
        "district": "仁愛鄉",
        "url": "https://asiayo.com/zh-tw/view/tw/nantou-county/39866/?tags=camping&isFromPropertyPage=true/",
        "latitude": 24.1034249,
        "longitude": 121.1946144,
        "type": 3,
        "disabled": 0,
        "bnbType": "露營區",
        "same_name": "翠峰農場 卡爾小鎮天文教育園區 -觀星自助露營場地推薦 人氣露營車住宿 近清境農場 合歡山"
    },
    {
        "code": 40042,
        "name": "依杉林露營區｜彩虹雨棚營位！",
        "city": "苗栗縣",
        "district": "銅鑼鄉",
        "url": "https://asiayo.com/zh-tw/view/tw/miaoli-county/40042/?tags=camping&isFromPropertyPage=true/",
        "latitude": 24.4234254,
        "longitude": 120.8057064,
        "type": 1,
        "disabled": 0,
        "bnbType": "露營區"
    },
    {
        "code": 40101,
        "name": "水玉妮光GC花園露營｜超美落羽松！",
        "city": "苗栗縣",
        "district": "卓蘭鎮",
        "region": "苗栗縣卓蘭鎮",
        "url": "https://asiayo.com/zh-tw/view/tw/miaoli-county/40101/?tags=camping&isFromPropertyPage=true/",
        "latitude": 24.332532,
        "longitude": 120.8178253,
        "type": 1,
        "disabled": 0,
        "bnbType": "露營區",
        "same_name": "水玉妮光GC"
    },
    {
        "code": 40111,
        "name": "猿田野露營區｜免裝備露營/自搭帳營位",
        "city": "屏東縣",
        "district": "車城鄉",
        "url": "https://asiayo.com/zh-tw/view/tw/pingtung-county/40111/?tags=camping&isFromPropertyPage=true/",
        "latitude": 22.0108205,
        "longitude": 120.6945468,
        "type": 4,
        "disabled": 0,
        "bnbType": "露營區"
    },
    {
        "code": 40159,
        "name": "雙龍景觀營地",
        "city": "南投縣",
        "district": "信義鄉",
        "region": "南投縣信義鄉",
        "url": "https://asiayo.com/zh-tw/view/tw/nantou-county/40159/?tags=camping&isFromPropertyPage=true/",
        "latitude": 23.7887806,
        "longitude": 120.9478122,
        "type": 4,
        "disabled": 0,
        "bnbType": "露營區"
    },
    {
        "code": 40178,
        "name": "高巢農場｜異國帳篷、露營車、獨立衛浴",
        "city": "花蓮縣",
        "district": "秀林鄉",
        "url": "https://asiayo.com/zh-tw/view/tw/hualien-county/40178/?tags=camping&isFromPropertyPage=true/",
        "latitude": 24.15476501,
        "longitude": 121.66212453,
        "type": 3,
        "disabled": 0,
        "bnbType": "露營區",
        "same_name": "高巢農場"
    },
    {
        "code": 40272,
        "name": "彩虹星光農園露營區",
        "city": "台中市",
        "district": "石岡區",
        "url": "https://asiayo.com/zh-tw/view/tw/taichung-city/40272/?tags=camping&isFromPropertyPage=true/",
        "latitude": 24.2707017,
        "longitude": 120.7833786,
        "type": 1,
        "disabled": 0,
        "bnbType": "露營區",
        "same_name": "彩虹星光農園露營區"
    },
    {
        "code": 40274,
        "name": "樹語星晴｜平日入住8折優惠、加購海陸頂級烤肉",
        "city": "苗栗縣",
        "district": "公館鄉",
        "url": "https://asiayo.com/zh-tw/view/tw/miaoli-county/40274/?tags=camping&isFromPropertyPage=true/",
        "latitude": 24.4830556,
        "longitude": 120.8388889,
        "type": 2,
        "disabled": 0,
        "bnbType": "露營區",
        "same_name": "樹語星晴（本館）"
    },
    {
        "code": 40279,
        "name": "靜月居｜小木屋及露營體驗",
        "city": "新竹縣",
        "district": "峨眉鄉",
        "url": "https://asiayo.com/zh-tw/view/tw/hsinchu-county/40279/?tags=camping&isFromPropertyPage=true/",
        "latitude": 24.671461,
        "longitude": 120.9942721,
        "type": 4,
        "disabled": 1,
        "bnbType": "民宿 / 公寓"
    },
    {
        "code": 40306,
        "name": "溪河木｜新上架栗子屋、豪華露營車、超大戲水池",
        "city": "宜蘭縣",
        "district": "大同鄉",
        "region": "宜蘭縣大同鄉",
        "url": "https://asiayo.com/zh-tw/view/tw/yilan-county/40306/?tags=camping&isFromPropertyPage=true/",
        "latitude": 24.6565503,
        "longitude": 121.5765769,
        "type": 4,
        "disabled": 1,
        "bnbType": "民宿 / 公寓"
    },
    {
        "code": 40332,
        "name": "湖南高地軍營民宿 l 免裝備露營",
        "city": "金門縣",
        "district": "金寧鄉",
        "url": "https://asiayo.com/zh-tw/view/tw/kinmen-county/40332/?tags=camping&isFromPropertyPage=true/",
        "latitude": 24.45585931,
        "longitude": 118.331764,
        "type": 4,
        "disabled": 1,
        "bnbType": "民宿 / 公寓"
    },
    {
        "code": 40364,
        "name": "衝到山上去放空｜屋脊帳、豪華露營、可選購烤肉",
        "city": "苗栗縣",
        "district": "公館鄉",
        "url": "https://asiayo.com/zh-tw/view/tw/miaoli-county/40364/?tags=camping&isFromPropertyPage=true/",
        "latitude": 24.48404591,
        "longitude": 120.83839947,
        "type": 2,
        "disabled": 0,
        "bnbType": "露營區",
        "same_name": "衝到山上去放空民宿露營區"
    },
    {
        "code": 40441,
        "name": "暮沐露營小庄｜全新星球帳、民宿",
        "city": "南投縣",
        "district": "魚池鄉",
        "url": "https://asiayo.com/zh-tw/view/tw/nantou-county/40441/?tags=camping&isFromPropertyPage=true/",
        "latitude": 23.9108916,
        "longitude": 120.8873889,
        "type": 4,
        "disabled": 1,
        "bnbType": "民宿 / 公寓"
    },
    {
        "code": 40443,
        "name": "四季非露不可｜獨家8折起！豪華狩獵帳（帳內有冷氣）、親子活動",
        "city": "苗栗縣",
        "district": "大湖鄉",
        "url": "https://asiayo.com/zh-tw/view/tw/miaoli-county/40443/?tags=camping&isFromPropertyPage=true/",
        "latitude": 24.3811262,
        "longitude": 120.8666649,
        "type": 4,
        "disabled": 1,
        "bnbType": "民宿 / 公寓"
    },
    {
        "code": 40446,
        "name": "斷橋部落 • 輕奢露營｜交通便利、贈豪華烤肉晚餐",
        "city": "苗栗縣",
        "district": "三義鄉",
        "url": "https://asiayo.com/zh-tw/view/tw/miaoli-county/40446/?tags=camping&isFromPropertyPage=true/",
        "latitude": 24.3554757,
        "longitude": 120.7744344,
        "type": 2,
        "disabled": 0,
        "bnbType": "露營區",
        "same_name": "斷橋部落．輕奢露營"
    },
    {
        "code": 40472,
        "name": "希望之丘｜獨家85折起！全新英倫風露營車、含早餐",
        "city": "宜蘭縣",
        "district": "冬山鄉",
        "url": "https://asiayo.com/zh-tw/view/tw/yilan-county/40472/?tags=camping&isFromPropertyPage=true/",
        "latitude": 24.6336409,
        "longitude": 121.7246153,
        "type": 2,
        "disabled": 0,
        "bnbType": "露營區"
    },
    {
        "code": 40499,
        "name": "那山那谷｜特色露營車、懶人露營",
        "city": "宜蘭縣",
        "district": "南澳鄉",
        "url": "https://asiayo.com/zh-tw/view/tw/yilan-county/40499/?tags=camping&isFromPropertyPage=true/",
        "latitude": 24.4365633,
        "longitude": 121.749354,
        "type": 2,
        "disabled": 0,
        "bnbType": "露營區"
    },
    {
        "code": 40504,
        "name": "三芝老農夫農場｜獨家8折！神殿帳、露營車、親子沙坑",
        "city": "新北市",
        "district": "三芝區",
        "url": "https://asiayo.com/zh-tw/view/tw/new-taipei-city/40504/?tags=camping&isFromPropertyPage=true/",
        "latitude": 25.2445207,
        "longitude": 121.464282,
        "type": 2,
        "disabled": 0,
        "bnbType": "露營區"
    },
    {
        "code": 40516,
        "name": "峇嵐杉丘｜一泊三食、獨立衛浴",
        "city": "南投縣",
        "district": "魚池鄉",
        "url": "https://asiayo.com/zh-tw/view/tw/nantou-county/40516/?tags=camping&isFromPropertyPage=true/",
        "latitude": 23.8896273,
        "longitude": 120.9213643,
        "type": 2,
        "disabled": 0,
        "bnbType": "露營區",
        "same_name": "峇嵐杉丘 奢華露營"
    },
    {
        "code": 40528,
        "name": "深山林內生態農場｜全新狩獵帳、星空玻璃屋",
        "city": "南投縣",
        "district": "竹山鎮",
        "url": "https://asiayo.com/zh-tw/view/tw/nantou-county/40528/?tags=camping&isFromPropertyPage=true/",
        "latitude": 23.6869932,
        "longitude": 120.7178432,
        "type": 4,
        "disabled": 1,
        "bnbType": "民宿 / 公寓"
    },
    {
        "code": 40565,
        "name": "漫度漁光豪華露營｜週五、六入住送烤肉食材！附冷氣、近漁光島！",
        "city": "台南市",
        "district": "安平區",
        "url": "https://asiayo.com/zh-tw/view/tw/tainan-city/40565/?tags=camping&isFromPropertyPage=true/",
        "latitude": 22.9860558,
        "longitude": 120.1587166,
        "type": 2,
        "disabled": 0,
        "bnbType": "露營區",
        "same_name": "漫度漁光"
    },
    {
        "code": 40572,
        "name": "南洋62之森",
        "city": "苗栗縣",
        "district": "南庄鄉",
        "url": "https://asiayo.com/zh-tw/view/tw/miaoli-county/40572/?tags=camping&isFromPropertyPage=true/",
        "latitude": 24.574028,
        "longitude": 120.997734,
        "type": 4,
        "disabled": 1,
        "bnbType": "民宿 / 公寓"
    },
    {
        "code": 40573,
        "name": "荒野半島｜無敵湖景豪華露營、一泊二食贈體驗、附冷氣",
        "city": "苗栗縣",
        "district": "頭屋鄉",
        "url": "https://asiayo.com/zh-tw/view/tw/miaoli-county/40573/?tags=camping&isFromPropertyPage=true/",
        "latitude": 24.5836172,
        "longitude": 120.8974887,
        "type": 2,
        "disabled": 0,
        "bnbType": "露營區",
        "same_name": "荒野半島露營區"
    },
    {
        "code": 40580,
        "name": "山門共享基地派對住宿｜豪華神殿帳、附冷氣",
        "city": "宜蘭縣",
        "district": "員山鄉",
        "url": "https://asiayo.com/zh-tw/view/tw/yilan-county/40580/?tags=camping&isFromPropertyPage=true/",
        "latitude": 24.7134891,
        "longitude": 121.7018759,
        "type": 2,
        "disabled": 0,
        "bnbType": "露營區",
        "same_name": "山門共享基地－宜蘭推薦 懶人派對共享基地 輕鬆住宿 場地租借 湧泉池 夏令營場地 秘密基地 團體聚會 公司員工旅遊 親子旅遊 派對包場 啟發課程 推薦 首選 山門RPG"
    },
    {
        "code": 40597,
        "name": "關西大象露營區｜賞螢火蟲、兒童遊戲區",
        "city": "新竹縣",
        "district": "關西鎮",
        "url": "https://asiayo.com/zh-tw/view/tw/hsinchu-county/40597/?tags=camping&isFromPropertyPage=true/",
        "latitude": 24.814656,
        "longitude": 121.180837,
        "type": 2,
        "disabled": 0,
        "bnbType": "露營區",
        "same_name": "關西大象露營地"
    },
    {
        "code": 40612,
        "name": "海洋露營區｜豪華露營、無敵海景、附冷氣！",
        "city": "花蓮縣",
        "district": "壽豐鄉",
        "url": "https://asiayo.com/zh-tw/view/tw/hualien-county/40612/?tags=camping&isFromPropertyPage=true/",
        "latitude": 23.9222315,
        "longitude": 121.6069405,
        "type": 3,
        "disabled": 0,
        "bnbType": "露營區",
        "same_name": "花蓮海洋露營區"
    },
    {
        "code": 40632,
        "name": "半島秘境-白沙灣濱海民宿｜星球帳、海景豪華露營",
        "city": "新北市",
        "district": "石門區",
        "url": "https://asiayo.com/zh-tw/view/tw/new-taipei-city/40632/?tags=camping&isFromPropertyPage=true/",
        "latitude": 25.286753,
        "longitude": 121.5107687,
        "type": 4,
        "disabled": 1,
        "bnbType": "民宿 / 公寓"
    },
    {
        "code": 40668,
        "name": "依星生態農場｜獨家8折起！懶人露營、百萬夜景、雲海、高海拔！",
        "city": "南投縣",
        "district": "中寮鄉",
        "url": "https://asiayo.com/zh-tw/view/tw/nantou-county/40668/?tags=camping&isFromPropertyPage=true/",
        "latitude": 23.960646,
        "longitude": 120.8347411,
        "type": 4,
        "disabled": 0,
        "bnbType": "露營區"
    },
    {
        "code": 40674,
        "name": "海放你基地｜豐濱海景第一排、靠山面海",
        "city": "花蓮縣",
        "district": "豐濱鄉",
        "url": "https://asiayo.com/zh-tw/view/tw/hualien-county/40674/?tags=camping&isFromPropertyPage=true/",
        "latitude": 23.6131676,
        "longitude": 121.5285056,
        "type": 2,
        "disabled": 0,
        "bnbType": "露營區",
        "same_name": "海放你基地 Have Funny Base"
    },
    {
        "code": 40718,
        "name": "悠野’s 豪華露營｜獨家95折起！全新景觀屋、一泊三食、再送體驗",
        "city": "新竹縣",
        "district": "尖石鄉",
        "url": "https://asiayo.com/zh-tw/view/tw/hsinchu-county/40718/?tags=camping&isFromPropertyPage=true/",
        "latitude": 24.7089438,
        "longitude": 121.2680607,
        "type": 2,
        "disabled": 0,
        "bnbType": "露營區",
        "same_name": "悠野's露營區"
    },
    {
        "code": 40719,
        "name": "隱峇里山莊｜露營車、景觀民宿、團體包棟推薦",
        "city": "桃園市",
        "district": "復興區",
        "url": "https://asiayo.com/zh-tw/view/tw/taoyuan-city/40719/?tags=camping&isFromPropertyPage=true/",
        "latitude": 24.8016216,
        "longitude": 121.3713436,
        "type": 4,
        "disabled": 1,
        "bnbType": "民宿 / 公寓"
    },
    {
        "code": 40722,
        "name": "明園星空營地",
        "city": "新竹縣",
        "district": "新埔鎮",
        "url": "https://asiayo.com/zh-tw/view/tw/hsinchu-county/40722/?tags=camping&isFromPropertyPage=true/",
        "latitude": 24.8560318,
        "longitude": 121.1355889,
        "type": 2,
        "disabled": 0,
        "bnbType": "露營區",
        "same_name": "明園星空營地"
    },
    {
        "code": 40744,
        "name": "拾階莊園｜豪華露營車、小木屋、近內灣老街",
        "city": "新竹縣",
        "district": "橫山鄉",
        "url": "https://asiayo.com/zh-tw/view/tw/hsinchu-county/40744/?tags=camping&isFromPropertyPage=true/",
        "latitude": 24.7012664,
        "longitude": 121.1814647,
        "type": 2,
        "disabled": 0,
        "bnbType": "露營區"
    },
    {
        "code": 40745,
        "name": "樂悠悠露營區｜獨家6折起！神殿帳、懶人露營",
        "city": "台中市",
        "district": "和平區",
        "url": "https://asiayo.com/zh-tw/view/tw/taichung-city/40745/?tags=camping&isFromPropertyPage=true/",
        "latitude": 24.14970432,
        "longitude": 120.96430844,
        "type": 2,
        "disabled": 0,
        "bnbType": "露營區",
        "same_name": "樂悠悠露營區"
    },
    {
        "code": 40774,
        "name": "鹿露山景露營區｜魚池鄉自搭帳",
        "city": "南投縣",
        "district": "魚池鄉",
        "url": "https://asiayo.com/zh-tw/view/tw/nantou-county/40774/?tags=camping&isFromPropertyPage=true/",
        "latitude": 23.92560112,
        "longitude": 120.94297203,
        "type": 1,
        "disabled": 0,
        "bnbType": "露營區",
        "same_name": "鹿露南投魚池露營區-日月潭露營區小木屋咖啡廳推薦"
    },
    {
        "code": 40831,
        "name": "黃金藍海秘境｜全新開幕",
        "city": "南投縣",
        "district": "國姓鄉",
        "region": "南投縣國姓鄉",
        "url": "https://asiayo.com/zh-tw/view/tw/nantou-county/40831/?tags=camping&isFromPropertyPage=true/",
        "latitude": 24.050079,
        "longitude": 120.8673293,
        "type": 4,
        "disabled": 1,
        "bnbType": "民宿 / 公寓"
    },
    {
        "code": 40855,
        "name": "朋趣露營車｜全新露營車、全包式度假體驗",
        "city": "桃園市",
        "district": "龍潭區",
        "url": "https://asiayo.com/zh-tw/view/tw/taoyuan-city/40855/?tags=camping&isFromPropertyPage=true/",
        "latitude": 24.869648,
        "longitude": 121.2478822,
        "type": 2,
        "disabled": 0,
        "bnbType": "露營區",
        "same_name": "朋趣 Bon Chill Glamping"
    },
    {
        "code": 41578,
        "name": "充電莊｜  山景/海景/夜景、小木屋、民宿、露營",
        "city": "宜蘭縣",
        "district": "礁溪鄉",
        "url": "https://asiayo.com/zh-tw/view/tw/yilan-county/41578/?tags=camping&isFromPropertyPage=true/",
        "latitude": 24.8087207,
        "longitude": 121.6960817,
        "type": 4,
        "disabled": 0,
        "bnbType": "露營區"
    },
    {
        "code": 41599,
        "name": "花鳥蟲鳴高山露營區｜近清境、雲海美景",
        "city": "南投縣",
        "district": "仁愛鄉",
        "url": "https://asiayo.com/zh-tw/view/tw/nantou-county/41599/?tags=camping&isFromPropertyPage=true/",
        "latitude": 24.07480122,
        "longitude": 121.17140069,
        "type": 2,
        "disabled": 0,
        "bnbType": "露營區",
        "same_name": "花鳥蟲鳴高山露營區"
    },
    {
        "code": 41606,
        "name": "颯颯谷 • 輕鬆露營｜獨家晚鳥85折！免裝備露營、可加套裝行程",
        "city": "屏東縣",
        "district": "滿州鄉",
        "url": "https://asiayo.com/zh-tw/view/tw/pingtung-county/41606/?tags=camping&isFromPropertyPage=true/",
        "latitude": 22.02582416,
        "longitude": 120.82500274,
        "type": 2,
        "disabled": 0,
        "bnbType": "露營區",
        "same_name": "颯颯谷 • 輕鬆露營"
    },
    {
        "code": 41790,
        "name": "呆呆的家-免搭帳露營｜六星級衛浴、附烤肉用具",
        "city": "台中市",
        "district": "和平區",
        "url": "https://asiayo.com/zh-tw/view/tw/taichung-city/41790/?tags=camping&isFromPropertyPage=true/",
        "latitude": 24.1690852,
        "longitude": 120.9583226,
        "type": 2,
        "disabled": 0,
        "bnbType": "露營區",
        "same_name": "呆呆的家-免搭帳露營"
    },
    {
        "code": 41808,
        "name": "尖石天空小木屋露營區｜高海拔、鄰近青蛙石天空步道",
        "city": "新竹縣",
        "district": "尖石鄉",
        "url": "https://asiayo.com/zh-tw/view/tw/hsinchu-county/41808/?tags=camping&isFromPropertyPage=true/",
        "latitude": 24.6952858,
        "longitude": 121.2662896,
        "type": 4,
        "disabled": 0,
        "bnbType": "露營區"
    },
    {
        "code": 42094,
        "name": "愛上天湖｜玻璃屋、豐富遊樂設施",
        "city": "新竹縣",
        "district": "五峰鄉",
        "url": "https://asiayo.com/zh-tw/view/tw/hsinchu-county/42094/?tags=camping&isFromPropertyPage=true/",
        "latitude": 24.6526957,
        "longitude": 121.1597686,
        "type": 2,
        "disabled": 0,
        "bnbType": "露營區",
        "same_name": "愛上天湖露營區(狩獵帳)"
    },
    {
        "code": 42123,
        "name": "地熱旅居｜落羽松、觀星、露營車",
        "city": "宜蘭縣",
        "district": "大同鄉",
        "url": "https://asiayo.com/zh-tw/view/tw/yilan-county/42123/?tags=camping&isFromPropertyPage=true/",
        "latitude": 24.6319739,
        "longitude": 121.6086561,
        "type": 2,
        "disabled": 0,
        "bnbType": "露營區",
        "same_name": "地熱旅居"
    },
    {
        "code": 42185,
        "name": "海邊舟舟｜曉晴星空露營地",
        "city": "台東縣",
        "district": "長濱鄉",
        "url": "https://asiayo.com/zh-tw/view/tw/taitung-county/42185/?tags=camping&isFromPropertyPage=true/",
        "latitude": 23.2414863,
        "longitude": 121.4161051,
        "type": 2,
        "disabled": 0,
        "bnbType": "露營區",
        "same_name": "海邊舟舟"
    },
    {
        "code": 42206,
        "name": "億享天開歡樂農場｜免裝備、小木屋",
        "city": "台中市",
        "district": "東勢區",
        "url": "https://asiayo.com/zh-tw/view/tw/taichung-city/42206/?tags=camping&isFromPropertyPage=true/",
        "latitude": 24.2652103,
        "longitude": 120.8392953,
        "type": 4,
        "disabled": 0,
        "bnbType": "露營區"
    },
    {
        "code": 42487,
        "name": "柚香露露｜大人味好料，貢鍋麻辣+就是愛海鮮",
        "city": "苗栗縣",
        "district": "銅鑼鄉",
        "url": "https://asiayo.com/zh-tw/view/tw/miaoli-county/42487/?tags=camping&isFromPropertyPage=true/",
        "latitude": 24.5318856,
        "longitude": 120.8055288,
        "type": 2,
        "disabled": 0,
        "bnbType": "露營區",
        "same_name": "柚香露露野樂地 Yio au Champ"
    },
    {
        "code": 42519,
        "name": "相思園景觀露營區｜星空泡泡屋、賞櫻花/星空",
        "city": "新竹縣",
        "district": "尖石鄉",
        "region": "新竹縣尖石鄉",
        "url": "https://asiayo.com/zh-tw/view/tw/hsinchu-county/42519/?tags=camping&isFromPropertyPage=true/",
        "latitude": 24.70926365,
        "longitude": 121.22460197,
        "type": 2,
        "disabled": 0,
        "bnbType": "露營區",
        "same_name": "相思園露營區"
    },
    {
        "code": 43770,
        "name": "布拉布拉露營區 BulaBula KC｜南澳懶人露營、可選購餐點",
        "city": "宜蘭縣",
        "district": "南澳鄉",
        "url": "https://asiayo.com/zh-tw/view/tw/yilan-county/43770/?tags=camping&isFromPropertyPage=true/",
        "latitude": 24.52716464,
        "longitude": 121.83206063,
        "type": 2,
        "disabled": 0,
        "bnbType": "露營區",
        "same_name": "布拉布拉BULABULA"
    },
    {
        "code": 43837,
        "name": "阿里山倉伯露營區",
        "city": "嘉義縣",
        "district": "阿里山鄉",
        "url": "https://asiayo.com/zh-tw/view/tw/chiayi-county/43837/?tags=camping&isFromPropertyPage=true/",
        "latitude": 23.4609533,
        "longitude": 120.6983053,
        "type": 4,
        "disabled": 0,
        "bnbType": "露營區"
    },
    {
        "code": 43902,
        "name": "草地狀元露營區",
        "city": "嘉義縣",
        "district": "大埔鄉",
        "url": "https://asiayo.com/zh-tw/view/tw/chiayi-county/43902/?tags=camping&isFromPropertyPage=true/",
        "latitude": 23.4797349,
        "longitude": 120.62595555,
        "type": 1,
        "disabled": 0,
        "bnbType": "露營區",
        "same_name": "草地狀元露營區"
    },
    {
        "code": 43993,
        "name": "天ㄟ露營車｜指定日加碼免費升級『一泊三食』",
        "city": "宜蘭縣",
        "district": "冬山鄉",
        "url": "https://asiayo.com/zh-tw/view/tw/yilan-county/43993/?tags=camping&isFromPropertyPage=true/",
        "latitude": 24.645634,
        "longitude": 121.732634,
        "type": 4,
        "disabled": 0,
        "bnbType": "露營區"
    },
    {
        "code": 44011,
        "name": "星空谷露營地 x Sparkling Good｜賞螢火蟲、五星露營衛浴設備",
        "city": "南投縣",
        "district": "仁愛鄉",
        "url": "https://asiayo.com/zh-tw/view/tw/nantou-county/44011/?tags=camping&isFromPropertyPage=true/",
        "latitude": 23.8901308,
        "longitude": 120.9890694,
        "type": 2,
        "disabled": 0,
        "bnbType": "露營區",
        "same_name": "星空谷露營地 x Sparkling Good_邂逅星空x雙人免搭帳露營_螢火蟲秘境"
    },
    {
        "code": 44019,
        "name": "趣兒Chill:藍鵲菲菲｜一泊三食",
        "city": "台北市",
        "district": "士林區",
        "url": "https://asiayo.com/zh-tw/view/tw/taipei-city/44019/?tags=camping&isFromPropertyPage=true/",
        "latitude": 25.1521217,
        "longitude": 121.5585331,
        "type": 2,
        "disabled": 0,
        "bnbType": "露營區",
        "same_name": "趣兒Chill_藍鵲菲菲"
    },
    {
        "code": 44024,
        "name": "溫德莊園豪華露營｜一泊二食再送泡湯、專屬私人衛浴",
        "city": "高雄市",
        "district": "六龜區",
        "region": "高雄市六龜區",
        "url": "https://asiayo.com/zh-tw/view/tw/kaohsiung-city/44024/?tags=camping&isFromPropertyPage=true/",
        "latitude": 23.0553765,
        "longitude": 120.6768615,
        "type": 2,
        "disabled": 0,
        "bnbType": "露營區",
        "same_name": "溫德莊園"
    },
    {
        "code": 44067,
        "name": "人魚空間彩虹館｜豪華露營、近白沙灣、一泊四食",
        "city": "新北市",
        "district": "石門區",
        "url": "https://asiayo.com/zh-tw/view/tw/new-taipei-city/44067/?tags=camping&isFromPropertyPage=true/",
        "latitude": 25.2852113,
        "longitude": 121.5109766,
        "type": 2,
        "disabled": 0,
        "bnbType": "露營區",
        "same_name": "人魚空間休閒育樂餐廳"
    },
    {
        "code": 44098,
        "name": "春露茶園｜高海拔、神殿帳、親子露營",
        "city": "台中市",
        "district": "和平區",
        "url": "https://asiayo.com/zh-tw/view/tw/taichung-city/44098/?tags=camping&isFromPropertyPage=true/",
        "latitude": 24.1482033,
        "longitude": 120.9633551,
        "type": 3,
        "disabled": 0,
        "bnbType": "露營區",
        "same_name": "八仙山春露茶園－台中和平｜推薦自搭露營區豪華帳 茶園區評價 平台區景觀網友好評 團體免裝備露營活動 首選公司包場包區 親子家庭懶人帳篷 草皮場地戶外體驗"
    },
    {
        "code": 44200,
        "name": "飛鳥恰恰",
        "city": "新竹縣",
        "district": "五峰鄉",
        "url": "https://asiayo.com/zh-tw/view/tw/hsinchu-county/44200/?tags=camping&isFromPropertyPage=true/",
        "latitude": 24.6578627,
        "longitude": 121.1728902,
        "type": 2,
        "disabled": 0,
        "bnbType": "露營區",
        "same_name": "飛鳥恰恰 Outdoorbase Experience"
    },
    {
        "code": 44215,
        "name": "荷蘭村露營區｜免裝備露營區、德元埤荷蘭村",
        "city": "台南市",
        "district": "柳營區",
        "url": "https://asiayo.com/zh-tw/view/tw/tainan-city/44215/?tags=camping&isFromPropertyPage=true/",
        "latitude": 23.2637488,
        "longitude": 120.3383667,
        "type": 3,
        "disabled": 0,
        "bnbType": "露營區",
        "same_name": "荷蘭村露營區_養生餐館_獨木舟"
    },
    {
        "code": 44292,
        "name": "蟬說：夕陽漫漫｜一泊二食，加碼送下午茶！",
        "city": "台中市",
        "district": "清水區",
        "url": "https://asiayo.com/zh-tw/view/tw/taichung-city/44292/?tags=camping&isFromPropertyPage=true/",
        "latitude": 24.3052935,
        "longitude": 120.5476094,
        "type": 2,
        "disabled": 0,
        "bnbType": "露營區",
        "same_name": "蟬說_ 夕陽漫漫 Slowly Sunset Glamping"
    },
    {
        "code": 44300,
        "name": "小份美露營區｜露營車、露營屋",
        "city": "苗栗縣",
        "district": "三灣鄉",
        "url": "https://asiayo.com/zh-tw/view/tw/miaoli-county/44300/?tags=camping&isFromPropertyPage=true/",
        "latitude": 24.669899,
        "longitude": 120.950817,
        "type": 4,
        "disabled": 0,
        "bnbType": "露營區"
    },
    {
        "code": 44343,
        "name": "只今漫漫 里山露營｜一泊二食、露營烤肉趣好評優惠持續",
        "city": "苗栗縣",
        "district": "西湖鄉",
        "url": "https://asiayo.com/zh-tw/view/tw/miaoli-county/44343/?tags=camping&isFromPropertyPage=true/",
        "latitude": 24.4990361,
        "longitude": 120.7705941,
        "type": 2,
        "disabled": 0,
        "bnbType": "露營區",
        "same_name": "只今漫漫 里山露營｜風格旅宿"
    },
    {
        "code": 44379,
        "name": "847 露營區",
        "city": "南投縣",
        "district": "鹿谷鄉",
        "url": "https://asiayo.com/zh-tw/view/tw/nantou-county/44379/?tags=camping&isFromPropertyPage=true/",
        "latitude": 23.7612358,
        "longitude": 120.7406612,
        "type": 4,
        "disabled": 0,
        "bnbType": "露營區"
    },
    {
        "code": 44435,
        "name": "微光露營區",
        "city": "台南市",
        "district": "楠西區",
        "url": "https://asiayo.com/zh-tw/view/tw/tainan-city/44435/?tags=camping&isFromPropertyPage=true/",
        "latitude": 23.16105866,
        "longitude": 120.5054503,
        "type": 4,
        "disabled": 0,
        "bnbType": "露營區"
    },
    {
        "code": 44480,
        "name": "伊咪達督露營區",
        "city": "高雄市",
        "district": "那瑪夏區",
        "url": "https://asiayo.com/zh-tw/view/tw/kaohsiung-city/44480/?tags=camping&isFromPropertyPage=true/",
        "latitude": 23.2411369,
        "longitude": 120.6944575,
        "type": 1,
        "disabled": 0,
        "bnbType": "露營區",
        "same_name": "伊咪達督露營區 - 高雄露營推薦包場首選 親子戶外活動渡假首選 烤肉 營火 人氣必吃 原住民美食風味餐(需預訂)代訂烤全豬 登山秘境露營 熱搜婚禮結婚求婚草地 團體 網友好評打卡熱門拍照景點 場地推薦"
    },
    {
        "code": 44494,
        "name": "村自然 VillNature Glamping｜近日月潭、6人即可包村、附冷暖氣",
        "city": "南投縣",
        "district": "魚池鄉",
        "url": "https://asiayo.com/zh-tw/view/tw/nantou-county/44494/?tags=camping&isFromPropertyPage=true/",
        "latitude": 23.8210261,
        "longitude": 120.9059302,
        "type": 2,
        "disabled": 0,
        "bnbType": "露營區",
        "same_name": "日月潭村自然Glamping｜懶人露營｜免裝備露營｜6人以上即可獨享包場｜帳棚內有變頻冷暖氣｜親子露營 南投露營"
    },
    {
        "code": 44560,
        "name": "好馬露營區",
        "city": "新竹縣",
        "district": "尖石鄉",
        "url": "https://asiayo.com/zh-tw/view/tw/hsinchu-county/44560/?tags=camping&isFromPropertyPage=true/",
        "latitude": 24.7319627,
        "longitude": 121.2465342,
        "type": 4,
        "disabled": 0,
        "bnbType": "露營區"
    },
    {
        "code": 44587,
        "name": "民權大橋露營區",
        "city": "高雄市",
        "district": "那瑪夏區",
        "url": "https://asiayo.com/zh-tw/view/tw/kaohsiung-city/44587/?tags=camping&isFromPropertyPage=true/",
        "latitude": 23.24595,
        "longitude": 120.69488,
        "type": 4,
        "disabled": 0,
        "bnbType": "露營區"
    },
    {
        "code": 44639,
        "name": "浮岸別境｜懶人露營、一泊三食",
        "city": "苗栗縣",
        "district": "泰安鄉",
        "url": "https://asiayo.com/zh-tw/view/tw/miaoli-county/44639/?tags=camping&isFromPropertyPage=true/",
        "latitude": 24.4075597,
        "longitude": 120.9384924,
        "type": 2,
        "disabled": 0,
        "bnbType": "露營區",
        "same_name": "浮岸別境(Buan Byacing.)"
    },
    {
        "code": 44738,
        "name": "將軍 微光露營區",
        "city": "台南市",
        "district": "將軍區",
        "url": "https://asiayo.com/zh-tw/view/tw/tainan-city/44738/?tags=camping&isFromPropertyPage=true/",
        "latitude": 23.1890443,
        "longitude": 120.1466688,
        "type": 4,
        "disabled": 0,
        "bnbType": "露營區"
    },
    {
        "code": 44811,
        "name": "夏洛克villa民宿 | 豪華懶人露營車",
        "city": "花蓮縣",
        "district": "吉安鄉",
        "url": "https://asiayo.com/zh-tw/view/tw/hualien-county/44811/?tags=camping&isFromPropertyPage=true/",
        "latitude": 23.946083,
        "longitude": 121.541336,
        "type": 0,
        "disabled": 1,
        "bnbType": "獨棟別墅"
    },
    {
        "code": 44847,
        "name": "向海那漾｜濱海豪華露營、一泊三食、海景",
        "city": "台中市",
        "district": "大安區",
        "url": "https://asiayo.com/zh-tw/view/tw/taichung-city/44847/?tags=camping&isFromPropertyPage=true/",
        "latitude": 24.3835992,
        "longitude": 120.5854224,
        "type": 2,
        "disabled": 0,
        "bnbType": "露營區",
        "same_name": "向海那漾 Nayang Beach"
    },
    {
        "code": 44849,
        "name": "清水那方｜懶人露營內可泡溫泉、豐富兒童遊樂設施",
        "city": "彰化縣",
        "district": "社頭鄉",
        "url": "https://asiayo.com/zh-tw/view/tw/changhua-county/44849/?tags=camping&isFromPropertyPage=true/",
        "latitude": 23.8845844,
        "longitude": 120.6089853,
        "type": 2,
        "disabled": 0,
        "bnbType": "露營區",
        "same_name": "清水那方 遊憩園地"
    },
    {
        "code": 44893,
        "name": "雲彩露營屋｜豪華露營屋、 苗栗南庄",
        "city": "苗栗縣",
        "district": "南庄鄉",
        "url": "https://asiayo.com/zh-tw/view/tw/miaoli-county/44893/?tags=camping&isFromPropertyPage=true/",
        "latitude": 24.6256096,
        "longitude": 121.0294605,
        "type": 4,
        "disabled": 0,
        "bnbType": "露營區"
    },
    {
        "code": 44903,
        "name": "山谷樂生態園區民宿露營",
        "city": "宜蘭縣",
        "district": "冬山鄉",
        "url": "https://asiayo.com/zh-tw/view/tw/yilan-county/44903/?tags=camping&isFromPropertyPage=true/",
        "latitude": 24.618358,
        "longitude": 121.730525,
        "type": 4,
        "disabled": 0,
        "bnbType": "露營區"
    },
    {
        "code": 44961,
        "name": "蟬說：霧繞｜一泊二食再送迎賓點心",
        "city": "新竹縣",
        "district": "五峰鄉",
        "url": "https://asiayo.com/zh-tw/view/tw/hsinchu-county/44961/?tags=camping&isFromPropertyPage=true/",
        "latitude": 24.5772603,
        "longitude": 121.0947833,
        "type": 4,
        "disabled": 0,
        "bnbType": "露營區"
    },
    {
        "code": 44974,
        "name": "蟬說：霧語｜一泊二食再送迎賓點心、雲海、夜景",
        "city": "新竹縣",
        "district": "五峰鄉",
        "url": "https://asiayo.com/zh-tw/view/tw/hsinchu-county/44974/?tags=camping&isFromPropertyPage=true/",
        "latitude": 24.5844976,
        "longitude": 121.0822307,
        "type": 4,
        "disabled": 0,
        "bnbType": "露營區"
    },
    {
        "code": 44976,
        "name": "南庄山河苑露營區丨遊獵帳、獨立衛浴、近南庄老街",
        "city": "苗栗縣",
        "district": "南庄鄉",
        "url": "https://asiayo.com/zh-tw/view/tw/miaoli-county/44976/?tags=camping&isFromPropertyPage=true/",
        "latitude": 24.5757138,
        "longitude": 120.9884343,
        "type": 3,
        "disabled": 0,
        "bnbType": "露營區",
        "same_name": "南庄山河苑露營區"
    },
    {
        "code": 45088,
        "name": "川夏野奢露營區 kawanatsu camp丨一泊二食神殿帳、豪華露營車",
        "city": "苗栗縣",
        "district": "南庄鄉",
        "url": "https://asiayo.com/zh-tw/view/tw/miaoli-county/45088/?tags=camping&isFromPropertyPage=true/",
        "latitude": 24.5740028,
        "longitude": 120.9853145,
        "type": 4,
        "disabled": 0,
        "bnbType": "露營區"
    },
    {
        "code": 45112,
        "name": "廿十八路露營區｜雲海、高海拔！",
        "city": "南投縣",
        "district": "國姓鄉",
        "url": "https://asiayo.com/zh-tw/view/tw/nantou-county/45112/?tags=camping&isFromPropertyPage=true/",
        "latitude": 23.940684,
        "longitude": 120.8346148,
        "type": 3,
        "disabled": 0,
        "bnbType": "露營區",
        "same_name": "廿十八路露營區"
    },
    {
        "code": 45130,
        "name": "基路伯營區｜獨家7折起！近清境農場、星空露營屋",
        "city": "南投縣",
        "district": "仁愛鄉",
        "url": "https://asiayo.com/zh-tw/view/tw/nantou-county/45130/?tags=camping&isFromPropertyPage=true/",
        "latitude": 24.03388817,
        "longitude": 121.14192927,
        "type": 4,
        "disabled": 1,
        "bnbType": "民宿 / 公寓"
    },
    {
        "code": 45317,
        "name": "嶼野山隱｜新上架、小琉球全新小木屋",
        "city": "屏東縣",
        "district": "琉球鄉 (小琉球)",
        "url": "https://asiayo.com/zh-tw/view/tw/pingtung-county/45317/?tags=camping&isFromPropertyPage=true/",
        "latitude": 22.3414367,
        "longitude": 120.3720018,
        "type": 2,
        "disabled": 0,
        "bnbType": "露營區",
        "same_name": "嶼野山隱yuye shanyin camping"
    },
    {
        "code": 45550,
        "name": "金山驛境｜北海岸懶人露營、可加購騎馬體驗",
        "city": "新北市",
        "district": "金山區",
        "url": "https://asiayo.com/zh-tw/view/tw/new-taipei-city/45550/?tags=camping&isFromPropertyPage=true/",
        "latitude": 25.2252721,
        "longitude": 121.6041087,
        "type": 2,
        "disabled": 0,
        "bnbType": "露營區",
        "same_name": "金山驛境 Gold Mountain Ranch Town"
    },
    {
        "code": 45590,
        "name": "曼漫落羽松奶凍車莊園｜獨家奶凍露營車、寵物友善",
        "city": "宜蘭縣",
        "district": "三星鄉",
        "url": "https://asiayo.com/zh-tw/view/tw/yilan-county/45590/?tags=camping&isFromPropertyPage=true/",
        "latitude": 24.7023783,
        "longitude": 121.743373,
        "type": 2,
        "disabled": 0,
        "bnbType": "露營區",
        "same_name": "曼漫落羽松_奶凍車莊園"
    },
    {
        "code": 45678,
        "name": "山美學｜豪華露營、一泊二食、露營車",
        "city": "苗栗縣",
        "district": "大湖鄉",
        "url": "https://asiayo.com/zh-tw/view/tw/miaoli-county/45678/?tags=camping&isFromPropertyPage=true/",
        "latitude": 24.3648016,
        "longitude": 120.8751094,
        "type": 2,
        "disabled": 0,
        "bnbType": "露營區",
        "same_name": "山美學2區"
    },
    {
        "code": 45750,
        "name": "松田崗蒙古渡假村｜一泊三食、特色蒙古包",
        "city": "嘉義縣",
        "district": "民雄鄉",
        "url": "https://asiayo.com/zh-tw/view/tw/chiayi-county/45750/?tags=camping&isFromPropertyPage=true/",
        "latitude": 23.546536,
        "longitude": 120.474349,
        "type": 2,
        "disabled": 0,
        "bnbType": "露營區",
        "same_name": "松田崗蒙古渡假村"
    },
    {
        "code": 45882,
        "name": "茶野裡-山野露營｜懶人露營、神殿帳",
        "city": "桃園市",
        "district": "蘆竹區",
        "url": "https://asiayo.com/zh-tw/view/tw/taoyuan-city/45882/?tags=camping&isFromPropertyPage=true/",
        "latitude": 25.0789278,
        "longitude": 121.3323081,
        "type": 2,
        "disabled": 0,
        "bnbType": "露營區"
    },
    {
        "code": 46223,
        "name": "埔里桂花庭生態營地｜新上架！南投懶人露營、CP值高",
        "city": "南投縣",
        "district": "埔里鎮",
        "url": "https://asiayo.com/zh-tw/view/tw/nantou-county/46223/?tags=camping&isFromPropertyPage=true/",
        "latitude": 23.9500867,
        "longitude": 120.9662745,
        "type": 4,
        "disabled": 0,
        "bnbType": "露營區"
    },
    {
        "code": 46246,
        "name": "丹內・丹內野奢莊園｜倒數搶購！一泊三食、親子首選",
        "city": "新北市",
        "district": "貢寮區",
        "url": "https://asiayo.com/zh-tw/view/tw/new-taipei-city/46246/?tags=camping&isFromPropertyPage=true/",
        "latitude": 25.04907767,
        "longitude": 121.90274525,
        "type": 2,
        "disabled": 0,
        "bnbType": "露營區",
        "same_name": "丹內丹內野奢莊園 DANNEI GLAMPING"
    },
    {
        "code": 46255,
        "name": "一水綠舟莊園｜全新開幕豪華露營、露營車",
        "city": "台南市",
        "district": "歸仁區",
        "url": "https://asiayo.com/zh-tw/view/tw/tainan-city/46255/?tags=camping&isFromPropertyPage=true/",
        "latitude": 22.9351849,
        "longitude": 120.2858311,
        "type": 2,
        "disabled": 0,
        "bnbType": "露營區",
        "same_name": "一水綠舟莊園"
    },
    {
        "code": 46853,
        "name": "蟬說：山中靜靜｜新上架豪華露營一泊二食、雲霧繚繞",
        "city": "台中市",
        "district": "太平區",
        "url": "https://asiayo.com/zh-tw/view/tw/taichung-city/46853/?tags=camping&isFromPropertyPage=true/",
        "latitude": 24.1244873,
        "longitude": 120.8150702,
        "type": 2,
        "disabled": 0,
        "bnbType": "露營區",
        "same_name": "蟬說：山中靜靜 Chanshuo Immersion glamping"
    },
    {
        "code": 46982,
        "name": "水與松森林莊園｜一泊三食+手做DIY、無邊際泳池",
        "city": "南投縣",
        "district": "埔里鎮",
        "url": "https://asiayo.com/zh-tw/view/tw/nantou-county/46982/?tags=camping&isFromPropertyPage=true/",
        "latitude": 23.9652323,
        "longitude": 120.9442845,
        "type": 2,
        "disabled": 0,
        "bnbType": "露營區",
        "same_name": "水与松森林莊園"
    },
    {
        "code": 47145,
        "name": "陌野露營車驛站｜新上架！豪華露營車、獨立露臺、寵物友善",
        "city": "南投縣",
        "district": "魚池鄉",
        "url": "https://asiayo.com/zh-tw/view/tw/nantou-county/47145/?tags=camping&isFromPropertyPage=true/",
        "latitude": 23.8669415,
        "longitude": 120.9067058,
        "type": 2,
        "disabled": 0,
        "bnbType": "露營區",
        "same_name": "陌野露營車驛站（寵物友善）－露營車民宿 寵物友善 露營區 露營車 豪華露營 親子露營 家庭露營 推薦 評價 人氣 網友推薦 高cp值"
    },
    {
        "code": 48735,
        "name": "百崴露營區｜新上架！豪華露營、一泊三食、近內灣老街",
        "city": "新竹縣",
        "district": "橫山鄉",
        "url": "https://asiayo.com/zh-tw/view/tw/hsinchu-county/48735/?tags=camping&isFromPropertyPage=true/",
        "latitude": 24.7431863,
        "longitude": 121.162304,
        "type": 2,
        "disabled": 0,
        "bnbType": "露營區",
        "same_name": "百崴露營區"
    },
    {
        "code": 48800,
        "name": "蘇維拉莊園｜新上架！全新豪華露營車、一泊一食",
        "city": "苗栗縣",
        "district": "南庄鄉",
        "region": "苗栗縣南庄鄉",
        "url": "https://asiayo.com/zh-tw/view/tw/miaoli-county/48800/?tags=camping&isFromPropertyPage=true/",
        "latitude": 24.6071112,
        "longitude": 120.99417913,
        "type": 2,
        "disabled": 0,
        "bnbType": "露營區"
    },
    {
        "code": 48879,
        "name": "灣東日出露營拖車｜新上架！日出露營車、鄰近東澳漁港和神秘沙灘",
        "city": "宜蘭縣",
        "district": "蘇澳鎮",
        "url": "https://asiayo.com/zh-tw/view/tw/yilan-county/48879/?tags=camping&isFromPropertyPage=true/",
        "latitude": 24.5126009,
        "longitude": 121.8361271,
        "type": 2,
        "disabled": 0,
        "bnbType": "露營區",
        "same_name": "灣東日出露營拖車"
    },
    {
        "code": 49019,
        "name": "崇德大草原｜蒙古包、體驗遊牧民族生活、獨立衛浴",
        "city": "花蓮縣",
        "district": "秀林鄉",
        "url": "https://asiayo.com/zh-tw/view/tw/hualien-county/49019/?tags=camping&isFromPropertyPage=true/",
        "latitude": 24.1452319,
        "longitude": 121.663096,
        "type": 4,
        "disabled": 0,
        "bnbType": "露營區"
    },
    {
        "code": 49158,
        "name": "清境茶野裡山野露營｜全新上架神殿帳、一泊一食",
        "city": "南投縣",
        "district": "仁愛鄉",
        "url": "https://asiayo.com/zh-tw/view/tw/nantou-county/49158/?tags=camping&isFromPropertyPage=true/",
        "latitude": 24.045697,
        "longitude": 121.157331,
        "type": 2,
        "disabled": 0,
        "bnbType": "露營區"
    },
    {
        "code": 49214,
        "name": "歸樸森活｜2/15~2/29 試營運7折、一泊一食加贈下午茶",
        "city": "嘉義縣",
        "district": "番路鄉",
        "url": "https://asiayo.com/zh-tw/view/tw/chiayi-county/49214/?tags=camping&isFromPropertyPage=true/",
        "latitude": 23.455763,
        "longitude": 120.5529825,
        "type": 2,
        "disabled": 0,
        "bnbType": "露營區",
        "same_name": "歸樸森活露營區"
    },
    {
        "code": 49233,
        "name": "愛聚時光露營區｜全新上架、山屋狩獵帳、一泊四食＋手作",
        "city": "南投縣",
        "district": "埔里鎮",
        "url": "https://asiayo.com/zh-tw/view/tw/nantou-county/49233/?tags=camping&isFromPropertyPage=true/",
        "latitude": 23.9503606,
        "longitude": 120.9193805,
        "type": 3,
        "disabled": 0,
        "bnbType": "露營區",
        "same_name": "愛聚時光森林露營區"
    },
    {
        "code": 49292,
        "name": "山上種樹牛樟森林休閒農場｜露營、一泊二食",
        "city": "苗栗縣",
        "district": "大湖鄉",
        "region": "苗栗縣大湖鄉",
        "url": "https://asiayo.com/zh-tw/view/tw/miaoli-county/49292/?tags=camping&isFromPropertyPage=true/",
        "latitude": 24.3988628,
        "longitude": 120.867322,
        "type": 2,
        "disabled": 0,
        "bnbType": "露營區",
        "same_name": "山上種樹牛樟森林休閒農場奢華露營-森居-Glamping"
    }
]