[
    {
        "code": 47039,
        "name": "宜蘭露營｜那山那谷露營車．泰雅圖騰帳空手露營",
        "url": "https://www.klook.com/zh-TW/activity/47039-na-sun-gu-glamping-experience/",
        "latitude": 24.4369104,
        "longitude": 121.746758,
        "address": "宜蘭縣南澳鄉金洋路2號",
        "type": 2,
        "disabled": 0,
        "same_name": "那山那谷"
    },
    {
        "code": 56250,
        "name": "宜蘭露營｜露境東岳｜免收搭懶人露營體驗",
        "url": "https://www.klook.com/zh-TW/activity/56250-glamping-experience-yilan/",
        "latitude": 24.5259347,
        "longitude": 121.7521736,
        "address": "宜蘭縣南澳鄉蘇花路五段一巷5-1號",
        "type": 2,
        "disabled": 0,
        "same_name": "露境東岳探險渡假營地"
    },
    {
        "code": 56849,
        "name": "南投露營｜日月潭畢瓦客｜一泊一食水泥管露營・免搭帳露營",
        "url": "https://www.klook.com/zh-TW/activity/56849-sun-moon-lake-glamping-experience-biwak/",
        "latitude": 23.8671107,
        "longitude": 120.8628161,
        "address": "南投縣魚池鄉中山路361-3號",
        "type": 2,
        "disabled": 0,
        "same_name": "畢瓦客"
    },
    {
        "code": 57742,
        "name": "南投露營｜朵娜朵露營區｜免裝備露營體驗",
        "url": "https://www.klook.com/zh-TW/activity/57742-donato-glamping-nantou/",
        "latitude": 24.0448266,
        "longitude": 121.1180292,
        "address": "南投縣仁愛鄉號",
        "type": 2,
        "disabled": 0,
        "same_name": "朵娜朵露營區donato glamping"
    },
    {
        "code": 57764,
        "name": "高雄露營｜遠山望月溫泉風呂露營區｜溫泉露營車・豪華狩獵帳",
        "url": "https://www.klook.com/zh-TW/activity/57764-kaohsiung-spa-grand-glamping/",
        "latitude": 23.1077039,
        "longitude": 120.70309455,
        "address": "高雄市六龜區花賞溫泉公園",
        "type": 3,
        "disabled": 0,
        "same_name": "遠山望月溫泉風呂 露營區"
    },
    {
        "code": 57806,
        "name": "新竹露營｜愛上喜翁｜豪華露營一泊四食・二食",
        "url": "https://www.klook.com/zh-TW/activity/57806-glamping-experience-meals-hsinchu/",
        "latitude": 24.5908476,
        "longitude": 121.1289742,
        "address": "新竹縣五峰鄉竹林村4鄰忠興93號",
        "type": 2,
        "disabled": 0,
        "same_name": "愛上喜翁民宿"
    },
    {
        "code": 58509,
        "name": "台東露營｜海邊舟舟｜曉晴星空露營｜一泊一食．二食海岸星空帳",
        "url": "https://www.klook.com/zh-TW/activity/58509-star-campground-taitung/",
        "latitude": 23.2414863,
        "longitude": 121.4161051,
        "address": "台東縣長濱鄉寧埔村寧埔路3-8號",
        "type": 2,
        "disabled": 0,
        "same_name": "海邊舟舟"
    },
    {
        "code": 58685,
        "name": "新竹露營｜樂窩露營區｜豪華露營體驗",
        "url": "https://www.klook.com/zh-TW/activity/58685-campcafebar-camping-experience-hsinchu/",
        "latitude": 24.6732811,
        "longitude": 120.9502575,
        "address": "台灣新竹縣峨眉鄉8-10",
        "type": 2,
        "disabled": 0,
        "same_name": "樂窩露營區_咖啡"
    },
    {
        "code": 58881,
        "name": "新竹露營｜尖石夢田營區｜免裝備景觀露營",
        "url": "https://www.klook.com/zh-TW/activity/58881-campground-hsinchu/",
        "latitude": 24.7277345,
        "longitude": 121.1761832,
        "address": "新竹縣尖石鄉村5鄰270-5號",
        "type": 2,
        "disabled": 0,
        "same_name": "尖石夢田營區(狩獵帳)"
    },
    {
        "code": 59671,
        "name": "苗栗露營｜黃金梯田露營地｜免裝備風格露營體驗",
        "url": "https://www.klook.com/zh-TW/activity/59671-golden-terraces-camping-miaoli/",
        "latitude": 24.4701561,
        "longitude": 120.7349212,
        "address": "苗栗銅鑼鄉九湖村92之5號",
        "type": 2,
        "disabled": 0,
        "same_name": "黃金梯田露營地"
    },
    {
        "code": 60188,
        "name": "苗栗四方鮮乳牧場：門票 ・滑草・烤肉・奶酪DIY",
        "url": "https://www.klook.com/zh-TW/activity/60188-fourways-ranch-miaoli/",
        "latitude": 24.7011815,
        "longitude": 120.8015439,
        "address": "苗栗縣竹南鎮崎頂里12鄰東崎頂9-6號",
        "type": 0,
        "disabled": 1
    },
    {
        "code": 60509,
        "name": "宜蘭露營｜三星秘露營區 Millu32｜免裝備露營．景觀木屋",
        "url": "https://www.klook.com/zh-TW/activity/60509-millu-32-camping-yilan/",
        "latitude": "",
        "longitude": "",
        "address": "",
        "type": 3,
        "disabled": 0,
        "same_name": "私人輕鬆渡假｜祕露32｜寵物友善 _ 獨立衛浴 _ 可烤肉 _ Millu 32 _ 私景觀懶人露營 _ 私度假豪華露營區"
    },
    {
        "code": 60828,
        "name": "嘉義露營｜詩情花園渡假村｜露營車體驗",
        "url": "https://www.klook.com/zh-TW/activity/60828-poetry-garden-caravan-resort-glamping-chiayi/",
        "latitude": 23.4455669,
        "longitude": 120.4991456,
        "address": "嘉義縣中埔鄉社口村社口1號",
        "type": 2,
        "disabled": 0,
        "same_name": "詩情花園度假村"
    },
    {
        "code": 61821,
        "name": "苗栗露營｜藍鵲渡假莊園｜合掌村・小木屋・露營車・免搭帳露營體驗",
        "url": "https://www.klook.com/zh-TW/activity/61821-blue-magpie-resort-glamping-miaoli/",
        "latitude": 24.4466758,
        "longitude": 120.6804607,
        "address": "苗栗縣通霄鎮南和里111號",
        "type": 4,
        "disabled": 0
    },
    {
        "code": 61900,
        "name": "宜蘭露營｜東風綠活 Oriental Green｜懶人露營體驗",
        "url": "https://www.klook.com/zh-TW/activity/61900-oriental-green-glamping-yilan/",
        "latitude": 24.6183093,
        "longitude": 121.7278654,
        "address": "台灣宜蘭縣冬山鄉中山路769號",
        "type": 2,
        "disabled": 0,
        "same_name": "東風綠活 Oriental Green"
    },
    {
        "code": 62186,
        "name": "南投露營｜緣溪行森林營地｜一泊二食豪華露營體驗｜加贈下午茶",
        "url": "https://www.klook.com/zh-TW/activity/62186-ycc-forest-campsite-nantou/",
        "latitude": 23.9769115,
        "longitude": 120.9896643,
        "address": "南投縣埔里鎮乾溪景觀橋545號",
        "type": 2,
        "disabled": 0,
        "same_name": "緣溪行森林營地"
    },
    {
        "code": 62662,
        "name": "露營地包車接送｜台北市區 - 半島秘境/金山驛境",
        "url": "https://www.klook.com/zh-TW/activity/62662-one-way-private-transfer-taipei-city-baisha-bay-luxury-camping/",
        "latitude": 24.1010181,
        "longitude": 119.5560113,
        "address": "新北市石門區下員坑15號",
        "type": 0,
        "disabled": 1
    },
    {
        "code": 64340,
        "name": "南投露營｜溪泮小屋露營區｜免搭帳懶人露營・小屋露營",
        "url": "https://www.klook.com/zh-TW/activity/64340-xi-pan-hut-camping-nantou/",
        "latitude": 23.5425127,
        "longitude": 120.271499,
        "address": "南投縣魚池鄉五馬巷2-2號",
        "type": 4,
        "disabled": 0
    },
    {
        "code": 65451,
        "name": "苗栗露營｜桃樂絲露營區｜免裝備風格露營體驗",
        "url": "https://www.klook.com/zh-TW/activity/65451-dorothy-camping-miaoli/",
        "latitude": 24.5462114,
        "longitude": 120.8409905,
        "address": "苗栗縣公館鄉公館3鄰40號",
        "type": 2,
        "disabled": 0,
        "same_name": "桃樂絲露營區"
    },
    {
        "code": 65811,
        "name": "南投露營｜卡爾小鎮｜星空夢幻帳＆星空露營車體驗",
        "url": "https://www.klook.com/zh-TW/activity/65811-carls-town-glamping-camping-nantou/",
        "latitude": 24.1034249,
        "longitude": 121.1946144,
        "address": "南投縣仁愛鄉仁和路235號",
        "type": 3,
        "disabled": 0,
        "same_name": "翠峰農場 卡爾小鎮天文教育園區 -觀星自助露營場地推薦 人氣露營車住宿 近清境農場 合歡山"
    },
    {
        "code": 65918,
        "name": "苗栗露營｜山川密境露營區｜彩虹貨櫃小屋露營體驗",
        "url": "https://www.klook.com/zh-TW/activity/65918-33camping-glamping-miaoli/",
        "latitude": 23.8782821,
        "longitude": 119.9654135,
        "address": "苗栗縣苗栗市南庄鄉南江村東江1鄰9號",
        "type": 2,
        "disabled": 0,
        "same_name": "山川密境露營區"
    },
    {
        "code": 66184,
        "name": "南投海盜村｜一泊四食｜竹屋式海盜探險露營",
        "url": "https://www.klook.com/zh-TW/activity/66184-pirate-village-glamping-nantou/",
        "latitude": 23.427539,
        "longitude": 120.1455691,
        "address": "南投縣竹山鎮東鄉路1-67號",
        "type": 0,
        "disabled": 1
    },
    {
        "code": 66202,
        "name": "新竹露營｜峨眉十二寮｜靜月居｜特色小木屋食宿體驗",
        "url": "https://www.klook.com/zh-TW/activity/66202-12-liao-tree-house-glamping-hsinchu/",
        "latitude": "",
        "longitude": "",
        "address": "",
        "type": 0,
        "disabled": 1
    },
    {
        "code": 66331,
        "name": "台南露營｜Vanaheim愛莊園｜星空豪華帳露營體驗",
        "url": "https://www.klook.com/zh-TW/activity/66331-vanaheim-glamping-tainan/",
        "latitude": 23.1855817,
        "longitude": 120.1152805,
        "address": "台南市北門區雙春73-11號",
        "type": 3,
        "disabled": 0,
        "same_name": "雙春濱海遊憩區 ( Vanaheim 愛莊園)"
    },
    {
        "code": 66376,
        "name": "屏東露營｜小琉球八海浬民宿｜露營車住宿體驗",
        "url": "https://www.klook.com/zh-TW/activity/66376-bahile-camping-car-pingtong/",
        "latitude": 22.34849181,
        "longitude": 120.38319529,
        "address": "屏東縣琉球鄉行政路11號台灣9號",
        "type": 2,
        "disabled": 0,
        "same_name": "八海浬民宿"
    },
    {
        "code": 66587,
        "name": "嘉義｜詩情夢幻城堡｜超親子主題旅店",
        "url": "https://www.klook.com/zh-TW/activity/66587-poetic-castle-family-villa-chiayi/",
        "latitude": "",
        "longitude": "",
        "address": "嘉義縣中埔鄉社口村16鄰十塊厝19-16號",
        "type": 0,
        "disabled": 1
    },
    {
        "code": 66743,
        "name": "南投露營｜清境見晴花園渡假山莊豪華露營體驗",
        "url": "https://www.klook.com/zh-TW/activity/66743-sunshine-villa-glamping-camping-car-nantou/",
        "latitude": 23.5501299,
        "longitude": 120.3648667,
        "address": "南投縣仁愛鄉大同村定遠新村18-1號",
        "type": 2,
        "disabled": 0,
        "same_name": "Sunshine Villa 清境見晴花園渡假山莊"
    },
    {
        "code": 66781,
        "name": "屏東露營｜墾丁O’Glamping 貓鼻頭露營莊園｜豪華露營・營位租借",
        "url": "https://www.klook.com/zh-TW/activity/66781-o-glamping-camping-car-villa-camping-pingtong/",
        "latitude": 22.5087317,
        "longitude": 119.8425888,
        "address": "屏東縣恆春鎮下泉路90號",
        "type": 3,
        "disabled": 0,
        "same_name": "O'GLAMPING墾丁貓鼻頭露營莊園"
    },
    {
        "code": 66944,
        "name": "新竹露營｜尖石之美露營渡假村｜露營車體驗",
        "url": "https://www.klook.com/zh-TW/activity/66944-jianshimei-glamping-camping-car/",
        "latitude": 23.9151964,
        "longitude": 120.0870699,
        "address": "新竹縣尖石鄉新樂村煤源8鄰1之1號",
        "type": 2,
        "disabled": 0,
        "same_name": "尖石之美露營渡假村（露營區）"
    },
    {
        "code": 67776,
        "name": "花蓮露營｜遠雄海洋公園｜夜宿賞星擁海宿營車-藍鯨艙（平日限定）",
        "url": "https://www.klook.com/zh-TW/activity/67776-farglory-ocean-park-glamping-car-hualien/",
        "latitude": 23.6552413,
        "longitude": 119.7956718,
        "address": "花蓮縣壽豐鄉189號",
        "type": 2,
        "disabled": 0,
        "same_name": "遠雄海洋公園"
    },
    {
        "code": 68272,
        "name": "苗栗露營｜斷橋部落・輕奢露營",
        "url": "https://www.klook.com/zh-TW/activity/68272-longteng-bridge-village-glamping-miaoli/",
        "latitude": 23.7254546,
        "longitude": 119.8455519,
        "address": "苗栗縣苗栗市苗栗縣三義鄉龍騰村六鄰外庄40號",
        "type": 2,
        "disabled": 0,
        "same_name": "斷橋部落．輕奢露營"
    },
    {
        "code": 69722,
        "name": "苗栗露營｜六沐森民宿｜豪華露營體驗｜一泊一食・二食 ",
        "url": "https://www.klook.com/zh-TW/activity/69722-liu-mu-shen-glamping-miaoli/",
        "latitude": 23.7645679,
        "longitude": 119.8742727,
        "address": "苗栗縣公館鄉仁安99之21號",
        "type": 2,
        "disabled": 0,
        "same_name": "六沐森民宿.森居Glamping｜B＆B｜包棟｜漢淙黑松園_"
    },
    {
        "code": 69994,
        "name": "台北露營｜日日好露營車GOODGOODVAN｜露營車自駕體驗｜台北取車",
        "url": "https://www.klook.com/zh-TW/activity/69994-goodgoodvan-camping-car-rental-taipei/",
        "latitude": "",
        "longitude": "",
        "address": "",
        "type": 0,
        "disabled": 1
    },
    {
        "code": 71255,
        "name": "宜蘭露營｜希望之丘休閒農場豪華露營車體驗",
        "url": "https://www.klook.com/zh-TW/activity/71255-hill-of-hope-camping-car-yilan/",
        "latitude": 24.0142936,
        "longitude": 119.7750415,
        "address": "宜蘭縣冬山鄉小埤五路331號",
        "type": 2,
        "disabled": 0,
        "same_name": "希望之丘露營區"
    },
    {
        "code": 71506,
        "name": "南投露營｜峇嵐杉丘BALAN HILL GLAMPING｜一泊三食野奢露營體驗",
        "url": "https://www.klook.com/zh-TW/activity/71506-balan-hill-glamping-nantou/",
        "latitude": 23.8896273,
        "longitude": 120.9213643,
        "address": "南投縣魚池鄉中明村8鄰文正巷2之6號",
        "type": 2,
        "disabled": 0,
        "same_name": "峇嵐杉丘 奢華露營"
    },
    {
        "code": 71696,
        "name": "宜蘭露營｜田野森農場｜一泊二食豪華露營體驗｜獨立包區",
        "url": "https://www.klook.com/zh-TW/activity/71696-morilife-glamping-yilan/",
        "latitude": 24.0142936,
        "longitude": 119.7750415,
        "address": "宜蘭縣冬山鄉大進二路246號",
        "type": 2,
        "disabled": 0,
        "same_name": "田野森農場Morilife"
    },
    {
        "code": 72105,
        "name": "苗栗露營｜春友彩虹民宿｜一泊四食豪華露營體驗",
        "url": "https://www.klook.com/zh-TW/activity/72105-spring-yu-glamping-miaoli/",
        "latitude": 24.613061,
        "longitude": 121.003811,
        "address": "苗栗縣南庄鄉東村17鄰",
        "type": 2,
        "disabled": 0,
        "same_name": "南庄 春友彩虹莊園 民宿 露營 餐廳 SpringYU B&B 鱘龍魚 鱒魚 南庄老街 苗栗住宿 神殿帳露營 (無提供包棟)"
    },
    {
        "code": 72302,
        "name": "花蓮露營｜鯉魚潭露營渡假村｜山水谷豪華露營體驗",
        "url": "https://www.klook.com/zh-TW/activity/72302-liyu-lake-holiday-resort-glamping-hualien/",
        "latitude": 23.6552413,
        "longitude": 119.7956718,
        "address": "花蓮縣壽豐鄉池南路二段90號",
        "type": 2,
        "disabled": 0,
        "same_name": "花蓮鯉魚潭露營渡假村"
    },
    {
        "code": 74354,
        "name": "台南露營｜漫度漁光｜豪華露營體驗",
        "url": "https://www.klook.com/zh-TW/activity/74354-glamping-tainan-camping-experience/",
        "latitude": 22.9860558,
        "longitude": 120.1587166,
        "address": "台南市安平區安億路",
        "type": 2,
        "disabled": 0,
        "same_name": "漫度漁光"
    },
    {
        "code": 75064,
        "name": "台東露營｜海邊舟舟｜曉晴星空二營｜海岸星空帳免搭帳露營",
        "url": "https://www.klook.com/zh-TW/activity/75064-star-camping-taitung/",
        "latitude": 22.7691145,
        "longitude": 120.1867258,
        "address": "台東縣長濱鄉成靜公路",
        "type": 2,
        "disabled": 0,
        "same_name": "海邊舟舟"
    },
    {
        "code": 75320,
        "name": "台東露營｜美山晴露營地｜豪華小木屋露營",
        "url": "https://www.klook.com/zh-TW/activity/75320-taitung-camping-luxury-log-cabin-camping/",
        "latitude": 22.7691145,
        "longitude": 120.1867258,
        "address": "台東縣成功鎮美山路230號",
        "type": 2,
        "disabled": 0,
        "same_name": "美山晴露營"
    },
    {
        "code": 75667,
        "name": "新竹露營｜拾階莊園｜豪華露營車體驗",
        "url": "https://www.klook.com/zh-TW/activity/75667-hsinchu-glamping-wood-cabin/",
        "latitude": 23.8647451,
        "longitude": 120.0476498,
        "address": "新竹縣橫山鄉內灣村內灣38-1",
        "type": 4,
        "disabled": 0
    },
    {
        "code": 82010,
        "name": "桃園露營｜桃禧漫遊渡假露營園區｜一泊四食・二食豪華露營饗宴",
        "url": "https://www.klook.com/zh-TW/activity/82010-orchard-villa-glamping/",
        "latitude": 23.9904037,
        "longitude": 120.1885287,
        "address": "桃園市大溪區康莊路五段150號",
        "type": 2,
        "disabled": 0,
        "same_name": "ORCHARD VILLA桃禧漫遊渡假露營園區"
    },
    {
        "code": 82103,
        "name": "南投露營｜溪泮別館｜免搭帳露營體驗｜神殿帳・豪華露營屋",
        "url": "https://www.klook.com/zh-TW/activity/82103-nantou-xi-pan-cabin-camping-glamping/",
        "latitude": 23.5425127,
        "longitude": 120.271499,
        "address": "南投縣魚池鄉共和村五馬巷2-6號",
        "type": 2,
        "disabled": 0,
        "same_name": "溪泮別館"
    },
    {
        "code": 85622,
        "name": "台中露營: 向海那漾濱海豪華露營區",
        "url": "https://www.klook.com/zh-TW/activity/85622-nanyang-beach-glamping-taichung/",
        "latitude": 23.652531,
        "longitude": 119.7182259,
        "address": "台中市大安區北汕路86巷1號",
        "type": 2,
        "disabled": 0,
        "same_name": "向海那漾 Nayang Beach"
    },
    {
        "code": 85635,
        "name": "彰化露營: 清水那方溫泉豪華露營區",
        "url": "https://www.klook.com/zh-TW/activity/85635-qinshui-resort-glamping-changhua/",
        "latitude": 23.4718998,
        "longitude": 120.1043173,
        "address": "彰化縣社頭鄉山腳路一段268號",
        "type": 2,
        "disabled": 0,
        "same_name": "清水那方 遊憩園地"
    },
    {
        "code": 86311,
        "name": "苗栗露營: 逗點露營區豪華露營體驗",
        "url": "https://www.klook.com/zh-TW/activity/86311-comma-camp-ground-miaoli/",
        "latitude": 23.8064191,
        "longitude": 119.9355919,
        "address": "苗栗縣三灣鄉內灣村龍峎頂5-28號",
        "type": 2,
        "disabled": 0,
        "same_name": "逗點露營區"
    },
    {
        "code": 92587,
        "name": "新竹豪華露營｜蟬說：霧繞｜一泊二食",
        "url": "https://www.klook.com/zh-TW/activity/92587-chanshuo-woorao-glamping-hsinchu/",
        "latitude": 23.9151964,
        "longitude": 120.019289,
        "address": "新竹縣五峰鄉桃山村白蘭298-3號",
        "type": 2,
        "disabled": 0,
        "same_name": "蟬說_ 霧繞 Chanshuo Woorao glamping"
    },
    {
        "code": 94279,
        "name": "台中豪華露營｜蟬說：夕陽漫漫｜一泊二食",
        "url": "https://www.klook.com/zh-TW/activity/94279-chanshuo-slowly-sunset-glamping-taichung/",
        "latitude": 23.6856189,
        "longitude": 119.7529541,
        "address": "台中市清水區美堤街8號",
        "type": 2,
        "disabled": 0,
        "same_name": "蟬說_ 夕陽漫漫 Slowly Sunset Glamping"
    },
    {
        "code": 95544,
        "name": "台北：趣兒chill:藍鵲菲菲豪華露營",
        "url": "https://www.klook.com/zh-TW/activity/95544-chill-lifestyle-glamping-taipei/",
        "latitude": 24.0344856,
        "longitude": 119.5769878,
        "address": "台北市士林區菁山路101巷71弄16號",
        "type": 2,
        "disabled": 0,
        "same_name": "趣兒Chill_藍鵲菲菲"
    },
    {
        "code": 95897,
        "name": "澎湖: 海島露營｜員貝樂營｜親子生態露營區",
        "url": "https://www.klook.com/zh-TW/activity/95897-yuan-bei-island-glamping-penghu/",
        "latitude": 23.1327953,
        "longitude": 119.6182898,
        "address": "澎湖縣白沙鄉員貝村10-7號",
        "type": 2,
        "disabled": 0,
        "same_name": "員貝樂營X員貝社區發展協會"
    },
    {
        "code": 100853,
        "name": "新竹: 百崴露營區 - 一泊三食懶人露營 / 豪華露營區",
        "url": "https://www.klook.com/zh-TW/activity/100853-yoy-baiwei-glamping/",
        "latitude": 23.9904037,
        "longitude": 120.1885287,
        "address": "新竹縣橫山鄉中豐路三段155號",
        "type": 2,
        "disabled": 0,
        "same_name": "百崴露營區"
    },
    {
        "code": 100994,
        "name": "南投: 相逢部落露營區 - 免搭帳懶人豪華露營",
        "url": "https://www.klook.com/zh-TW/activity/100994-xiang-feng-buluo-glamping/",
        "latitude": 23.5425127,
        "longitude": 120.2822042,
        "address": "南投縣仁愛鄉中正村平等巷1-10號",
        "type": 2,
        "disabled": 0,
        "same_name": "相逢部落"
    },
    {
        "code": 104608,
        "name": "台中露營｜海邊舟舟｜曉晴星空三營｜8米 / 6米球型星空帳",
        "url": "https://www.klook.com/zh-TW/activity/104608-star-campground-taitung/",
        "latitude": 23.6322116,
        "longitude": 119.8677727,
        "address": "台灣台中市新社區上坪4號",
        "type": 2,
        "disabled": 0,
        "same_name": "海邊舟舟"
    },
    {
        "code": 106136,
        "name": "嘉義露營｜歸樸森活｜一泊一食豪華露營體驗",
        "url": "https://www.klook.com/zh-TW/activity/106136-guipu-glamping-chiayi/",
        "latitude": 23.0903856,
        "longitude": 120.2360754,
        "address": "嘉義縣番路鄉下石頭埔7鄰69號",
        "type": 2,
        "disabled": 0,
        "same_name": "歸樸森活露營區"
    },
    {
        "code": 1101157310,
        "name": "尖石天空小木屋露營區",
        "url": "https://www.klook.com/zh-TW/hotels/detail/1157310-jian-shi-sky-campsite/",
        "latitude": "",
        "longitude": "",
        "address": "",
        "type": 0,
        "disabled": 1
    },
    {
        "code": 1101186498,
        "name": "蘑菇山林民宿露營區",
        "url": "https://www.klook.com/zh-TW/hotels/detail/1186498-mushroom-forest-guesthouse-camping-site/",
        "latitude": "",
        "longitude": "",
        "address": "",
        "type": 0,
        "disabled": 1
    }
]