[
    {
        "code": 44976,
        "name": "南庄山河苑露營區丨遊獵帳、獨立衛浴、近南庄老街",
        "city": "苗栗縣",
        "district": "南庄鄉",
        "url": "https://asiayo.com/zh-tw/view/tw/miaoli-county/44976/?tags=camping&isFromPropertyPage=true/",
        "latitude": 24.5757138,
        "longitude": 120.9884343
    },
    {
        "code": 40364,
        "name": "衝到山上去放空｜屋脊帳、豪華露營、可選購烤肉",
        "city": "苗栗縣",
        "district": "公館鄉",
        "url": "https://asiayo.com/zh-tw/view/tw/miaoli-county/40364/?tags=camping&isFromPropertyPage=true/",
        "latitude": 24.48404591,
        "longitude": 120.83839947
    },
    {
        "code": 40441,
        "name": "暮沐露營小庄｜全新星球帳、民宿",
        "city": "南投縣",
        "district": "魚池鄉",
        "url": "https://asiayo.com/zh-tw/view/tw/nantou-county/40441/?tags=camping&isFromPropertyPage=true/",
        "latitude": 23.9108916,
        "longitude": 120.8873889
    },
    {
        "code": 39226,
        "name": "緣溪行森林營地｜一泊二食送迎賓點心、親子友善",
        "city": "南投縣",
        "district": "埔里鎮",
        "url": "https://asiayo.com/zh-tw/view/tw/nantou-county/39226/?tags=camping&isFromPropertyPage=true/",
        "latitude": 23.9769115,
        "longitude": 120.9896643
    },
    {
        "code": 45130,
        "name": "基路伯營區｜獨家7折起！近清境農場、星空露營屋",
        "city": "南投縣",
        "district": "仁愛鄉",
        "url": "https://asiayo.com/zh-tw/view/tw/nantou-county/45130/?tags=camping&isFromPropertyPage=true/",
        "latitude": 24.03388817,
        "longitude": 121.14192927
    },
    {
        "code": 39864,
        "name": "野趣凍頂-奢華露營｜春節初一至初四加碼抽獎活動/獨立衛浴",
        "city": "南投縣",
        "district": "鹿谷鄉",
        "url": "https://asiayo.com/zh-tw/view/tw/nantou-county/39864/?tags=camping&isFromPropertyPage=true/",
        "latitude": 23.74622607,
        "longitude": 120.76352097
    },
    {
        "code": 39493,
        "name": "春友彩虹豪華露營｜獨家8折起！可選購一泊四食、擂茶體驗",
        "city": "苗栗縣",
        "district": "南庄鄉",
        "url": "https://asiayo.com/zh-tw/view/tw/miaoli-county/39493/?tags=camping&isFromPropertyPage=true/",
        "latitude": 24.613061,
        "longitude": 121.003811
    },
    {
        "code": 45088,
        "name": "川夏野奢露營區 kawanatsu camp丨一泊二食神殿帳、豪華露營車",
        "city": "苗栗縣",
        "district": "南庄鄉",
        "url": "https://asiayo.com/zh-tw/view/tw/miaoli-county/45088/?tags=camping&isFromPropertyPage=true/",
        "latitude": 24.5740028,
        "longitude": 120.9853145
    },
    {
        "code": 40178,
        "name": "高巢農場｜異國帳篷、露營車、獨立衛浴",
        "city": "花蓮縣",
        "district": "秀林鄉",
        "url": "https://asiayo.com/zh-tw/view/tw/hualien-county/40178/?tags=camping&isFromPropertyPage=true/",
        "latitude": 24.15476501,
        "longitude": 121.66212453
    },
    {
        "code": 39216,
        "name": "安農露營區｜附露營車、自搭帳、游泳池",
        "city": "宜蘭縣",
        "district": "三星鄉",
        "url": "https://asiayo.com/zh-tw/view/tw/yilan-county/39216/?tags=camping&isFromPropertyPage=true/",
        "latitude": 24.65565644,
        "longitude": 121.64790127
    },
    {
        "code": 40744,
        "name": "拾階莊園｜豪華露營車、小木屋、近內灣老街",
        "city": "新竹縣",
        "district": "橫山鄉",
        "url": "https://asiayo.com/zh-tw/view/tw/hsinchu-county/40744/?tags=camping&isFromPropertyPage=true/",
        "latitude": 24.7012664,
        "longitude": 121.1814647
    },
    {
        "code": 39856,
        "name": "覓靜莊園｜免裝備高海拔、兒童遊樂設施！",
        "city": "台中市",
        "district": "和平區",
        "url": "https://asiayo.com/zh-tw/view/tw/taichung-city/39856/?tags=camping&isFromPropertyPage=true/",
        "latitude": 24.1640455,
        "longitude": 120.9520671
    },
    {
        "code": 44292,
        "name": "蟬說：夕陽漫漫｜一泊二食，加碼送下午茶！",
        "city": "台中市",
        "district": "清水區",
        "url": "https://asiayo.com/zh-tw/view/tw/taichung-city/44292/?tags=camping&isFromPropertyPage=true/",
        "latitude": 24.3052935,
        "longitude": 120.5476094
    },
    {
        "code": 45590,
        "name": "曼漫落羽松奶凍車莊園｜獨家奶凍露營車、寵物友善",
        "city": "宜蘭縣",
        "district": "三星鄉",
        "url": "https://asiayo.com/zh-tw/view/tw/yilan-county/45590/?tags=camping&isFromPropertyPage=true/",
        "latitude": 24.7023783,
        "longitude": 121.743373
    },
    {
        "code": 44343,
        "name": "只今漫漫 里山露營｜一泊二食、露營烤肉趣好評優惠持續",
        "city": "苗栗縣",
        "district": "西湖鄉",
        "url": "https://asiayo.com/zh-tw/view/tw/miaoli-county/44343/?tags=camping&isFromPropertyPage=true/",
        "latitude": 24.4990361,
        "longitude": 120.7705941
    },
    {
        "code": 39630,
        "name": "森渼原｜豪華露營、一泊三食",
        "city": "台中市",
        "district": "外埔區",
        "url": "https://asiayo.com/zh-tw/view/tw/taichung-city/39630/?tags=camping&isFromPropertyPage=true/",
        "latitude": 24.3295315,
        "longitude": 120.6204619
    },
    {
        "code": 41790,
        "name": "呆呆的家-免搭帳露營｜六星級衛浴、附烤肉用具",
        "city": "台中市",
        "district": "和平區",
        "url": "https://asiayo.com/zh-tw/view/tw/taichung-city/41790/?tags=camping&isFromPropertyPage=true/",
        "latitude": 24.1690852,
        "longitude": 120.9583226
    },
    {
        "code": 44961,
        "name": "蟬說：霧繞｜一泊二食再送迎賓點心",
        "city": "新竹縣",
        "district": "五峰鄉",
        "url": "https://asiayo.com/zh-tw/view/tw/hsinchu-county/44961/?tags=camping&isFromPropertyPage=true/",
        "latitude": 24.5772603,
        "longitude": 121.0947833
    },
    {
        "code": 49233,
        "name": "愛聚時光露營區｜全新上架、山屋狩獵帳、一泊四食＋手作",
        "city": "南投縣",
        "district": "埔里鎮",
        "url": "https://asiayo.com/zh-tw/view/tw/nantou-county/49233/?tags=camping&isFromPropertyPage=true/",
        "latitude": 23.9503606,
        "longitude": 120.9193805
    },
    {
        "code": 39217,
        "name": "野石森林露營區",
        "city": "宜蘭縣",
        "district": "大同鄉",
        "url": "https://asiayo.com/zh-tw/view/tw/yilan-county/39217/?tags=camping&isFromPropertyPage=true/",
        "latitude": 24.61025711,
        "longitude": 121.68937062
    }
]