[
    {
        "code": 44976,
        "name": "南庄山河苑露營區丨遊獵帳、獨立衛浴、近南庄老街",
        "city": "苗栗縣",
        "district": "南庄鄉",
        "url": "https://asiayo.com/zh-tw/view/tw/miaoli-county/44976/?tags=camping&isFromPropertyPage=true/",
        "latitude": 24.5757138,
        "longitude": 120.9884343
    },
    {
        "code": 40364,
        "name": "衝到山上去放空｜屋脊帳、豪華露營、可選購烤肉",
        "city": "苗栗縣",
        "district": "公館鄉",
        "url": "https://asiayo.com/zh-tw/view/tw/miaoli-county/40364/?tags=camping&isFromPropertyPage=true/",
        "latitude": 24.48404591,
        "longitude": 120.83839947
    },
    {
        "code": 45130,
        "name": "基路伯營區｜獨家7折起！近清境農場、星空露營屋",
        "city": "南投縣",
        "district": "仁愛鄉",
        "url": "https://asiayo.com/zh-tw/view/tw/nantou-county/45130/?tags=camping&isFromPropertyPage=true/",
        "latitude": 24.03388817,
        "longitude": 121.14192927
    },
    {
        "code": 39226,
        "name": "緣溪行森林營地｜一泊二食送迎賓點心、親子友善",
        "city": "南投縣",
        "district": "埔里鎮",
        "url": "https://asiayo.com/zh-tw/view/tw/nantou-county/39226/?tags=camping&isFromPropertyPage=true/",
        "latitude": 23.9769115,
        "longitude": 120.9896643
    },
    {
        "code": 46223,
        "name": "埔里桂花庭生態營地｜新上架！南投懶人露營、CP值高",
        "city": "南投縣",
        "district": "埔里鎮",
        "url": "https://asiayo.com/zh-tw/view/tw/nantou-county/46223/?tags=camping&isFromPropertyPage=true/",
        "latitude": 23.9500867,
        "longitude": 120.9662745
    },
    {
        "code": 39493,
        "name": "春友彩虹豪華露營｜獨家8折起！可選購一泊四食、擂茶體驗",
        "city": "苗栗縣",
        "district": "南庄鄉",
        "url": "https://asiayo.com/zh-tw/view/tw/miaoli-county/39493/?tags=camping&isFromPropertyPage=true/",
        "latitude": 24.613061,
        "longitude": 121.003811
    },
    {
        "code": 45088,
        "name": "川夏野奢露營區 kawanatsu camp丨一泊二食神殿帳、豪華露營車",
        "city": "苗栗縣",
        "district": "南庄鄉",
        "url": "https://asiayo.com/zh-tw/view/tw/miaoli-county/45088/?tags=camping&isFromPropertyPage=true/",
        "latitude": 24.5740028,
        "longitude": 120.9853145
    },
    {
        "code": 40178,
        "name": "高巢農場｜異國帳篷、露營車、獨立衛浴",
        "city": "花蓮縣",
        "district": "秀林鄉",
        "url": "https://asiayo.com/zh-tw/view/tw/hualien-county/40178/?tags=camping&isFromPropertyPage=true/",
        "latitude": 24.15476501,
        "longitude": 121.66212453
    },
    {
        "code": 40744,
        "name": "拾階莊園｜豪華露營車、小木屋、近內灣老街",
        "city": "新竹縣",
        "district": "橫山鄉",
        "url": "https://asiayo.com/zh-tw/view/tw/hsinchu-county/40744/?tags=camping&isFromPropertyPage=true/",
        "latitude": 24.7012664,
        "longitude": 121.1814647
    },
    {
        "code": 39216,
        "name": "安農露營區｜附露營車、自搭帳、游泳池",
        "city": "宜蘭縣",
        "district": "三星鄉",
        "url": "https://asiayo.com/zh-tw/view/tw/yilan-county/39216/?tags=camping&isFromPropertyPage=true/",
        "latitude": 24.65565644,
        "longitude": 121.64790127
    },
    {
        "code": 39856,
        "name": "覓靜莊園｜免裝備高海拔、兒童遊樂設施！",
        "city": "台中市",
        "district": "和平區",
        "url": "https://asiayo.com/zh-tw/view/tw/taichung-city/39856/?tags=camping&isFromPropertyPage=true/",
        "latitude": 24.1640455,
        "longitude": 120.9520671
    },
    {
        "code": 44343,
        "name": "只今漫漫 里山露營｜一泊二食、露營烤肉趣好評優惠持續",
        "city": "苗栗縣",
        "district": "西湖鄉",
        "url": "https://asiayo.com/zh-tw/view/tw/miaoli-county/44343/?tags=camping&isFromPropertyPage=true/",
        "latitude": 24.4990361,
        "longitude": 120.7705941
    },
    {
        "code": 44292,
        "name": "蟬說：夕陽漫漫｜一泊二食，加碼送下午茶！",
        "city": "台中市",
        "district": "清水區",
        "url": "https://asiayo.com/zh-tw/view/tw/taichung-city/44292/?tags=camping&isFromPropertyPage=true/",
        "latitude": 24.3052935,
        "longitude": 120.5476094
    },
    {
        "code": 44961,
        "name": "蟬說：霧繞｜一泊二食再送迎賓點心",
        "city": "新竹縣",
        "district": "五峰鄉",
        "url": "https://asiayo.com/zh-tw/view/tw/hsinchu-county/44961/?tags=camping&isFromPropertyPage=true/",
        "latitude": 24.5772603,
        "longitude": 121.0947833
    },
    {
        "code": 39630,
        "name": "森渼原｜豪華露營、一泊三食",
        "city": "台中市",
        "district": "外埔區",
        "url": "https://asiayo.com/zh-tw/view/tw/taichung-city/39630/?tags=camping&isFromPropertyPage=true/",
        "latitude": 24.3295315,
        "longitude": 120.6204619
    },
    {
        "code": 41790,
        "name": "呆呆的家-免搭帳露營｜六星級衛浴、附烤肉用具",
        "city": "台中市",
        "district": "和平區",
        "url": "https://asiayo.com/zh-tw/view/tw/taichung-city/41790/?tags=camping&isFromPropertyPage=true/",
        "latitude": 24.1690852,
        "longitude": 120.9583226
    },
    {
        "code": 41599,
        "name": "花鳥蟲鳴高山露營區｜近清境、雲海美景",
        "city": "南投縣",
        "district": "仁愛鄉",
        "url": "https://asiayo.com/zh-tw/view/tw/nantou-county/41599/?tags=camping&isFromPropertyPage=true/",
        "latitude": 24.07480122,
        "longitude": 121.17140069
    },
    {
        "code": 49233,
        "name": "愛聚時光露營區｜全新上架、山屋狩獵帳、一泊四食＋手作",
        "city": "南投縣",
        "district": "埔里鎮",
        "url": "https://asiayo.com/zh-tw/view/tw/nantou-county/49233/?tags=camping&isFromPropertyPage=true/",
        "latitude": 23.9503606,
        "longitude": 120.9193805
    },
    {
        "code": 39219,
        "name": "太平山森活趣渡假農場 | 露營車、免裝備露營、全新楓林房型",
        "city": "宜蘭縣",
        "district": "大同鄉",
        "url": "https://asiayo.com/zh-tw/view/tw/yilan-county/39219/?tags=camping&isFromPropertyPage=true/",
        "latitude": 24.5218567,
        "longitude": 121.4474264
    },
    {
        "code": 39439,
        "name": "東風綠活｜懶人、新手露營區。免裝備輕鬆露營趣",
        "city": "宜蘭縣",
        "district": "冬山鄉",
        "url": "https://asiayo.com/zh-tw/view/tw/yilan-county/39439/?tags=camping&isFromPropertyPage=true/",
        "latitude": 24.6183044,
        "longitude": 121.7304403
    },
    {
        "code": 39217,
        "name": "野石森林露營區",
        "city": "宜蘭縣",
        "district": "大同鄉",
        "url": "https://asiayo.com/zh-tw/view/tw/yilan-county/39217/?tags=camping&isFromPropertyPage=true/",
        "latitude": 24.61025711,
        "longitude": 121.68937062
    },
    {
        "code": 36860,
        "name": "灥流｜清境唯一蒙古包住宿",
        "city": "南投縣",
        "district": "仁愛鄉",
        "url": "https://asiayo.com/zh-tw/view/tw/nantou-county/36860/?tags=camping&isFromPropertyPage=true/",
        "latitude": 24.0379797,
        "longitude": 121.1578715
    },
    {
        "code": 39261,
        "name": "田野森農場｜包區豪華露營一泊二食、附冷氣獨立衛浴",
        "city": "宜蘭縣",
        "district": "冬山鄉",
        "url": "https://asiayo.com/zh-tw/view/tw/yilan-county/39261/?tags=camping&isFromPropertyPage=true/",
        "latitude": 24.632949,
        "longitude": 121.720651
    },
    {
        "code": 42123,
        "name": "地熱旅居｜落羽松、觀星、露營車",
        "city": "宜蘭縣",
        "district": "大同鄉",
        "url": "https://asiayo.com/zh-tw/view/tw/yilan-county/42123/?tags=camping&isFromPropertyPage=true/",
        "latitude": 24.6319739,
        "longitude": 121.6086561
    },
    {
        "code": 44098,
        "name": "春露茶園｜高海拔、神殿帳、親子露營",
        "city": "台中市",
        "district": "和平區",
        "url": "https://asiayo.com/zh-tw/view/tw/taichung-city/44098/?tags=camping&isFromPropertyPage=true/",
        "latitude": 24.1482033,
        "longitude": 120.9633551
    },
    {
        "code": 40274,
        "name": "樹語星晴｜平日入住8折優惠、加購海陸頂級烤肉",
        "city": "苗栗縣",
        "district": "公館鄉",
        "url": "https://asiayo.com/zh-tw/view/tw/miaoli-county/40274/?tags=camping&isFromPropertyPage=true/",
        "latitude": 24.4830556,
        "longitude": 120.8388889
    },
    {
        "code": 44300,
        "name": "小份美露營區｜露營車、露營屋",
        "city": "苗栗縣",
        "district": "三灣鄉",
        "url": "https://asiayo.com/zh-tw/view/tw/miaoli-county/44300/?tags=camping&isFromPropertyPage=true/",
        "latitude": 24.669899,
        "longitude": 120.950817
    },
    {
        "code": 39866,
        "name": "卡爾小鎮｜早鳥八折起！清境星空露營車、星空夢幻帳",
        "city": "南投縣",
        "district": "仁愛鄉",
        "url": "https://asiayo.com/zh-tw/view/tw/nantou-county/39866/?tags=camping&isFromPropertyPage=true/",
        "latitude": 24.1034249,
        "longitude": 121.1946144
    },
    {
        "code": 39396,
        "name": "見晴花園渡假山莊｜可選購樓中樓帳篷、露營車",
        "city": "南投縣",
        "district": "仁愛鄉",
        "url": "https://asiayo.com/zh-tw/view/tw/nantou-county/39396/?tags=camping&isFromPropertyPage=true/",
        "latitude": 24.0415579,
        "longitude": 121.1582995
    },
    {
        "code": 40612,
        "name": "海洋露營區｜豪華露營、無敵海景、附冷氣！",
        "city": "花蓮縣",
        "district": "壽豐鄉",
        "url": "https://asiayo.com/zh-tw/view/tw/hualien-county/40612/?tags=camping&isFromPropertyPage=true/",
        "latitude": 23.9222315,
        "longitude": 121.6069405
    },
    {
        "code": 45750,
        "name": "松田崗蒙古渡假村｜一泊三食、特色蒙古包",
        "city": "嘉義縣",
        "district": "民雄鄉",
        "url": "https://asiayo.com/zh-tw/view/tw/chiayi-county/45750/?tags=camping&isFromPropertyPage=true/",
        "latitude": 23.546536,
        "longitude": 120.474349
    },
    {
        "code": 46982,
        "name": "水与松森林莊園｜一泊三食+手做DIY、無邊際泳池",
        "city": "南投縣",
        "district": "埔里鎮",
        "url": "https://asiayo.com/zh-tw/view/tw/nantou-county/46982/?tags=camping&isFromPropertyPage=true/",
        "latitude": 23.9652323,
        "longitude": 120.9442845
    },
    {
        "code": 39373,
        "name": "白鹿營區｜親子首選、高 CP 值彩色合掌屋",
        "city": "南投縣",
        "district": "魚池鄉",
        "url": "https://asiayo.com/zh-tw/view/tw/nantou-county/39373/?tags=camping&isFromPropertyPage=true/",
        "latitude": 23.883603,
        "longitude": 120.920693
    },
    {
        "code": 39683,
        "name": "微笑灣農場｜無邊際泳池、百萬夜景、景觀露營車",
        "city": "宜蘭縣",
        "district": "頭城鎮",
        "url": "https://asiayo.com/zh-tw/view/tw/yilan-county/39683/?tags=camping&isFromPropertyPage=true/",
        "latitude": 24.87812818,
        "longitude": 121.82564858
    },
    {
        "code": 40572,
        "name": "南洋62之森",
        "city": "苗栗縣",
        "district": "南庄鄉",
        "url": "https://asiayo.com/zh-tw/view/tw/miaoli-county/40572/?tags=camping&isFromPropertyPage=true/",
        "latitude": 24.574028,
        "longitude": 120.997734
    },
    {
        "code": 42206,
        "name": "億享天開歡樂農場｜免裝備、小木屋",
        "city": "台中市",
        "district": "東勢區",
        "url": "https://asiayo.com/zh-tw/view/tw/taichung-city/42206/?tags=camping&isFromPropertyPage=true/",
        "latitude": 24.2652103,
        "longitude": 120.8392953
    },
    {
        "code": 28998,
        "name": "苗栗鹿場850 木屋民宿｜可4-14人包棟 | 露營野趣",
        "city": "苗栗縣",
        "district": "南庄鄉",
        "url": "https://asiayo.com/zh-tw/view/tw/miaoli-county/28998/?tags=camping&isFromPropertyPage=true/",
        "latitude": 24.5419369,
        "longitude": 121.02813046
    },
    {
        "code": 40499,
        "name": "那山那谷｜特色露營車、懶人露營",
        "city": "宜蘭縣",
        "district": "南澳鄉",
        "url": "https://asiayo.com/zh-tw/view/tw/yilan-county/40499/?tags=camping&isFromPropertyPage=true/",
        "latitude": 24.4365633,
        "longitude": 121.749354
    }
]