[
    {
        "code": 38896,
        "name": "遊橘露營區",
        "city": "新竹縣",
        "district": "橫山鄉",
        "url": "https://asiayo.com/zh-tw/view/tw/hsinchu-county/38896/?tags=camping&isFromPropertyPage=true/",
        "latitude": 24.726584,
        "longitude": 121.16246
    },
    {
        "code": 49158,
        "name": "清境茶野裡山野露營｜全新上架神殿帳、一泊一食",
        "city": "南投縣",
        "district": "仁愛鄉",
        "url": "https://asiayo.com/zh-tw/view/tw/nantou-county/49158/?tags=camping&isFromPropertyPage=true/",
        "latitude": 24.045697,
        "longitude": 121.157331
    },
    {
        "code": 44215,
        "name": "荷蘭村露營區｜免裝備露營區、德元埤荷蘭村",
        "city": "台南市",
        "district": "柳營區",
        "url": "https://asiayo.com/zh-tw/view/tw/tainan-city/44215/?tags=camping&isFromPropertyPage=true/",
        "latitude": 23.2637488,
        "longitude": 120.3383667
    },
    {
        "code": 40774,
        "name": "鹿露山景露營區｜魚池鄉自搭帳",
        "city": "南投縣",
        "district": "魚池鄉",
        "url": "https://asiayo.com/zh-tw/view/tw/nantou-county/40774/?tags=camping&isFromPropertyPage=true/",
        "latitude": 23.92560112,
        "longitude": 120.94297203
    },
    {
        "code": 46246,
        "name": "丹內・丹內野奢莊園｜倒數搶購！一泊三食、親子首選",
        "city": "新北市",
        "district": "貢寮區",
        "url": "https://asiayo.com/zh-tw/view/tw/new-taipei-city/46246/?tags=camping&isFromPropertyPage=true/",
        "latitude": 25.04907767,
        "longitude": 121.90274525
    },
    {
        "code": 39395,
        "name": "新豐休閒農場｜平日8折！特色蒙古包露營、包棟小木屋",
        "city": "新竹縣",
        "district": "新豐鄉",
        "url": "https://asiayo.com/zh-tw/view/tw/hsinchu-county/39395/?tags=camping&isFromPropertyPage=true/",
        "latitude": 24.93504731,
        "longitude": 120.9954965
    },
    {
        "code": 40504,
        "name": "三芝老農夫農場｜獨家8折！神殿帳、露營車、親子沙坑",
        "city": "新北市",
        "district": "三芝區",
        "url": "https://asiayo.com/zh-tw/view/tw/new-taipei-city/40504/?tags=camping&isFromPropertyPage=true/",
        "latitude": 25.2445207,
        "longitude": 121.464282
    },
    {
        "code": 39399,
        "name": "山嵐謐靜露營民宿｜南投縣國姓鄉",
        "city": "南投縣",
        "district": "國姓鄉",
        "url": "https://asiayo.com/zh-tw/view/tw/nantou-county/39399/?tags=camping&isFromPropertyPage=true/",
        "latitude": 24.07547957,
        "longitude": 120.87718163
    },
    {
        "code": 39517,
        "name": "都瑪斯民宿露營區",
        "city": "苗栗縣",
        "district": "泰安鄉",
        "url": "https://asiayo.com/zh-tw/view/tw/miaoli-county/39517/?tags=camping&isFromPropertyPage=true/",
        "latitude": 24.3838117,
        "longitude": 120.9691942
    },
    {
        "code": 39771,
        "name": "墾丁\b麓人甲露營區｜超夯免裝備包區！",
        "city": "屏東縣",
        "district": "墾丁 (恆春鎮)",
        "url": "https://asiayo.com/zh-tw/view/tw/pingtung-county/39771/?tags=camping&isFromPropertyPage=true/",
        "latitude": 22.04175098,
        "longitude": 120.71242287
    },
    {
        "code": 40042,
        "name": "依杉林露營區｜彩虹雨棚營位！",
        "city": "苗栗縣",
        "district": "銅鑼鄉",
        "url": "https://asiayo.com/zh-tw/view/tw/miaoli-county/40042/?tags=camping&isFromPropertyPage=true/",
        "latitude": 24.4234254,
        "longitude": 120.8057064
    },
    {
        "code": 40332,
        "name": "湖南高地軍營民宿 l 免裝備露營",
        "city": "金門縣",
        "district": "金寧鄉",
        "url": "https://asiayo.com/zh-tw/view/tw/kinmen-county/40332/?tags=camping&isFromPropertyPage=true/",
        "latitude": 24.45585931,
        "longitude": 118.331764
    },
    {
        "code": 44067,
        "name": "人魚空間彩虹館｜豪華露營、近白沙灣、一泊四食",
        "city": "新北市",
        "district": "石門區",
        "url": "https://asiayo.com/zh-tw/view/tw/new-taipei-city/44067/?tags=camping&isFromPropertyPage=true/",
        "latitude": 25.2852113,
        "longitude": 121.5109766
    },
    {
        "code": 44435,
        "name": "微光露營區",
        "city": "台南市",
        "district": "楠西區",
        "url": "https://asiayo.com/zh-tw/view/tw/tainan-city/44435/?tags=camping&isFromPropertyPage=true/",
        "latitude": 23.16105866,
        "longitude": 120.5054503
    },
    {
        "code": 44587,
        "name": "民權大橋露營區",
        "city": "高雄市",
        "district": "那瑪夏區",
        "url": "https://asiayo.com/zh-tw/view/tw/kaohsiung-city/44587/?tags=camping&isFromPropertyPage=true/",
        "latitude": 23.24595,
        "longitude": 120.69488
    },
    {
        "code": 45317,
        "name": "嶼野山隱｜新上架、小琉球全新小木屋",
        "city": "屏東縣",
        "district": "琉球鄉 (小琉球)",
        "url": "https://asiayo.com/zh-tw/view/tw/pingtung-county/45317/?tags=camping&isFromPropertyPage=true/",
        "latitude": 22.3414367,
        "longitude": 120.3720018
    }
]