[
    {
        "code": 45882,
        "name": "茶野裡-山野露營｜懶人露營、神殿帳",
        "city": "桃園市",
        "district": "蘆竹區",
        "url": "https://asiayo.com/zh-tw/view/tw/taoyuan-city/45882/?tags=camping&isFromPropertyPage=true/",
        "latitude": 25.0789278,
        "longitude": 121.3323081
    },
    {
        "code": 39225,
        "name": "森林蜂味露營區｜提供裝備租借方案",
        "city": "南投縣",
        "district": "埔里鎮",
        "url": "https://asiayo.com/zh-tw/view/tw/nantou-county/39225/?tags=camping&isFromPropertyPage=true/",
        "latitude": 23.9417932,
        "longitude": 120.9249079
    },
    {
        "code": 40668,
        "name": "依星生態農場｜獨家8折起！懶人露營、百萬夜景、雲海、高海拔！",
        "city": "南投縣",
        "district": "中寮鄉",
        "url": "https://asiayo.com/zh-tw/view/tw/nantou-county/40668/?tags=camping&isFromPropertyPage=true/",
        "latitude": 23.960646,
        "longitude": 120.8347411
    },
    {
        "code": 44811,
        "name": "夏洛克villa民宿 | 豪華懶人露營車",
        "city": "花蓮縣",
        "district": "吉安鄉",
        "url": "https://asiayo.com/zh-tw/view/tw/hualien-county/44811/?tags=camping&isFromPropertyPage=true/",
        "latitude": 23.946083,
        "longitude": 121.541336
    },
    {
        "code": 38992,
        "name": "墾丁後壁湖露營車｜平日87折！近海邊、獨立小庭院",
        "city": "屏東縣",
        "district": "墾丁 (恆春鎮)",
        "url": "https://asiayo.com/zh-tw/view/tw/pingtung-county/38992/?tags=camping&isFromPropertyPage=true/",
        "latitude": 21.9481416,
        "longitude": 120.7434251
    },
    {
        "code": 39303,
        "name": "逗留營地 l",
        "city": "新竹縣",
        "district": "竹東鎮",
        "url": "https://asiayo.com/zh-tw/view/tw/hsinchu-county/39303/?tags=camping&isFromPropertyPage=true/",
        "latitude": 24.70056164,
        "longitude": 121.09689085
    },
    {
        "code": 40632,
        "name": "半島秘境-白沙灣濱海民宿｜星球帳、海景豪華露營",
        "city": "新北市",
        "district": "石門區",
        "url": "https://asiayo.com/zh-tw/view/tw/new-taipei-city/40632/?tags=camping&isFromPropertyPage=true/",
        "latitude": 25.286753,
        "longitude": 121.5107687
    },
    {
        "code": 40719,
        "name": "隱峇里山莊｜露營車、景觀民宿、團體包棟推薦",
        "city": "桃園市",
        "district": "復興區",
        "url": "https://asiayo.com/zh-tw/view/tw/taoyuan-city/40719/?tags=camping&isFromPropertyPage=true/",
        "latitude": 24.8016216,
        "longitude": 121.3713436
    },
    {
        "code": 40472,
        "name": "希望之丘｜獨家85折起！全新英倫風露營車、含早餐",
        "city": "宜蘭縣",
        "district": "冬山鄉",
        "url": "https://asiayo.com/zh-tw/view/tw/yilan-county/40472/?tags=camping&isFromPropertyPage=true/",
        "latitude": 24.6336409,
        "longitude": 121.7246153
    },
    {
        "code": 46255,
        "name": "一水綠舟莊園｜全新開幕豪華露營、露營車",
        "city": "台南市",
        "district": "歸仁區",
        "url": "https://asiayo.com/zh-tw/view/tw/tainan-city/46255/?tags=camping&isFromPropertyPage=true/",
        "latitude": 22.9351849,
        "longitude": 120.2858311
    },
    {
        "code": 40272,
        "name": "彩虹星光農園露營區",
        "city": "台中市",
        "district": "石岡區",
        "url": "https://asiayo.com/zh-tw/view/tw/taichung-city/40272/?tags=camping&isFromPropertyPage=true/",
        "latitude": 24.2707017,
        "longitude": 120.7833786
    },
    {
        "code": 45112,
        "name": "廿十八路露營區｜雲海、高海拔！",
        "city": "南投縣",
        "district": "國姓鄉",
        "url": "https://asiayo.com/zh-tw/view/tw/nantou-county/45112/?tags=camping&isFromPropertyPage=true/",
        "latitude": 23.940684,
        "longitude": 120.8346148
    },
    {
        "code": 25632,
        "name": "好漾民宿露營車 | 可6人包棟 | 寵物友善x戶外大空間",
        "city": "宜蘭縣",
        "district": "羅東鎮",
        "url": "https://asiayo.com/zh-tw/view/tw/yilan-county/25632/?tags=camping&isFromPropertyPage=true/",
        "latitude": 24.690166,
        "longitude": 121.761341
    },
    {
        "code": 44738,
        "name": "將軍 微光露營區",
        "city": "台南市",
        "district": "將軍區",
        "url": "https://asiayo.com/zh-tw/view/tw/tainan-city/44738/?tags=camping&isFromPropertyPage=true/",
        "latitude": 23.1890443,
        "longitude": 120.1466688
    },
    {
        "code": 40565,
        "name": "漫度漁光豪華露營｜週五、六入住送烤肉食材！附冷氣、近漁光島！",
        "city": "台南市",
        "district": "安平區",
        "url": "https://asiayo.com/zh-tw/view/tw/tainan-city/40565/?tags=camping&isFromPropertyPage=true/",
        "latitude": 22.9860558,
        "longitude": 120.1587166
    },
    {
        "code": 39143,
        "name": "空中邊境露營區｜無敵百萬夜景、免費停車場、兒童遊戲區",
        "city": "南投縣",
        "district": "竹山鎮",
        "url": "https://asiayo.com/zh-tw/view/tw/nantou-county/39143/?tags=camping&isFromPropertyPage=true/",
        "latitude": 23.6984694,
        "longitude": 120.7134601
    },
    {
        "code": 39334,
        "name": "三生園生態露營區｜草皮營位、五星級浴廁",
        "city": "南投縣",
        "district": "鹿谷鄉",
        "url": "https://asiayo.com/zh-tw/view/tw/nantou-county/39334/?tags=camping&isFromPropertyPage=true/",
        "latitude": 23.7260582,
        "longitude": 120.776549
    },
    {
        "code": 39172,
        "name": "英台牧場露營區-油桐花秘境",
        "city": "苗栗縣",
        "district": "苗栗市",
        "url": "https://asiayo.com/zh-tw/view/tw/miaoli-county/39172/?tags=camping&isFromPropertyPage=true/",
        "latitude": 24.5609538,
        "longitude": 120.8169081
    },
    {
        "code": 39320,
        "name": "社寮角露營區｜採草莓、螢火蟲導覽",
        "city": "苗栗縣",
        "district": "大湖鄉",
        "url": "https://asiayo.com/zh-tw/view/tw/miaoli-county/39320/?tags=camping&isFromPropertyPage=true/",
        "latitude": 24.4276104,
        "longitude": 120.88067631
    },
    {
        "code": 44379,
        "name": "847 露營區",
        "city": "南投縣",
        "district": "鹿谷鄉",
        "url": "https://asiayo.com/zh-tw/view/tw/nantou-county/44379/?tags=camping&isFromPropertyPage=true/",
        "latitude": 23.7612358,
        "longitude": 120.7406612
    }
]