[
    {
        "code": 41599,
        "name": "花鳥蟲鳴高山露營區｜近清境、雲海美景",
        "city": "南投縣",
        "district": "仁愛鄉",
        "url": "https://asiayo.com/zh-tw/view/tw/nantou-county/41599/?tags=camping&isFromPropertyPage=true/",
        "latitude": 24.07480122,
        "longitude": 121.17140069
    },
    {
        "code": 39439,
        "name": "東風綠活｜懶人、新手露營區。免裝備輕鬆露營趣",
        "city": "宜蘭縣",
        "district": "冬山鄉",
        "url": "https://asiayo.com/zh-tw/view/tw/yilan-county/39439/?tags=camping&isFromPropertyPage=true/",
        "latitude": 24.6183044,
        "longitude": 121.7304403
    },
    {
        "code": 40718,
        "name": "悠野’s 豪華露營｜獨家95折起！全新景觀屋、一泊三食、再送體驗",
        "city": "新竹縣",
        "district": "尖石鄉",
        "url": "https://asiayo.com/zh-tw/view/tw/hsinchu-county/40718/?tags=camping&isFromPropertyPage=true/",
        "latitude": 24.7089438,
        "longitude": 121.2680607
    },
    {
        "code": 42123,
        "name": "地熱旅居｜落羽松、觀星、露營車",
        "city": "宜蘭縣",
        "district": "大同鄉",
        "url": "https://asiayo.com/zh-tw/view/tw/yilan-county/42123/?tags=camping&isFromPropertyPage=true/",
        "latitude": 24.6319739,
        "longitude": 121.6086561
    },
    {
        "code": 39261,
        "name": "田野森農場｜包區豪華露營一泊二食、附冷氣獨立衛浴",
        "city": "宜蘭縣",
        "district": "冬山鄉",
        "url": "https://asiayo.com/zh-tw/view/tw/yilan-county/39261/?tags=camping&isFromPropertyPage=true/",
        "latitude": 24.632949,
        "longitude": 121.720651
    },
    {
        "code": 44974,
        "name": "蟬說：霧語｜一泊二食再送迎賓點心、雲海、夜景",
        "city": "新竹縣",
        "district": "五峰鄉",
        "url": "https://asiayo.com/zh-tw/view/tw/hsinchu-county/44974/?tags=camping&isFromPropertyPage=true/",
        "latitude": 24.5844976,
        "longitude": 121.0822307
    },
    {
        "code": 40274,
        "name": "樹語星晴｜平日入住8折優惠、加購海陸頂級烤肉",
        "city": "苗栗縣",
        "district": "公館鄉",
        "url": "https://asiayo.com/zh-tw/view/tw/miaoli-county/40274/?tags=camping&isFromPropertyPage=true/",
        "latitude": 24.4830556,
        "longitude": 120.8388889
    },
    {
        "code": 39866,
        "name": "卡爾小鎮｜早鳥八折起！清境星空露營車、星空夢幻帳",
        "city": "南投縣",
        "district": "仁愛鄉",
        "url": "https://asiayo.com/zh-tw/view/tw/nantou-county/39866/?tags=camping&isFromPropertyPage=true/",
        "latitude": 24.1034249,
        "longitude": 121.1946144
    },
    {
        "code": 39396,
        "name": "見晴花園渡假山莊｜可選購樓中樓帳篷、露營車",
        "city": "南投縣",
        "district": "仁愛鄉",
        "url": "https://asiayo.com/zh-tw/view/tw/nantou-county/39396/?tags=camping&isFromPropertyPage=true/",
        "latitude": 24.0415579,
        "longitude": 121.1582995
    },
    {
        "code": 40612,
        "name": "海洋露營區｜豪華露營、無敵海景、附冷氣！",
        "city": "花蓮縣",
        "district": "壽豐鄉",
        "url": "https://asiayo.com/zh-tw/view/tw/hualien-county/40612/?tags=camping&isFromPropertyPage=true/",
        "latitude": 23.9222315,
        "longitude": 121.6069405
    },
    {
        "code": 45750,
        "name": "松田崗蒙古渡假村｜一泊三食、特色蒙古包",
        "city": "嘉義縣",
        "district": "民雄鄉",
        "url": "https://asiayo.com/zh-tw/view/tw/chiayi-county/45750/?tags=camping&isFromPropertyPage=true/",
        "latitude": 23.546536,
        "longitude": 120.474349
    },
    {
        "code": 46982,
        "name": "水與松森林莊園｜一泊三食+手做DIY、無邊際泳池",
        "city": "南投縣",
        "district": "埔里鎮",
        "url": "https://asiayo.com/zh-tw/view/tw/nantou-county/46982/?tags=camping&isFromPropertyPage=true/",
        "latitude": 23.9652323,
        "longitude": 120.9442845
    },
    {
        "code": 39373,
        "name": "白鹿營區｜親子首選、高 CP 值彩色合掌屋",
        "city": "南投縣",
        "district": "魚池鄉",
        "url": "https://asiayo.com/zh-tw/view/tw/nantou-county/39373/?tags=camping&isFromPropertyPage=true/",
        "latitude": 23.883603,
        "longitude": 120.920693
    },
    {
        "code": 45678,
        "name": "山美學｜豪華露營、一泊二食、露營車",
        "city": "苗栗縣",
        "district": "大湖鄉",
        "url": "https://asiayo.com/zh-tw/view/tw/miaoli-county/45678/?tags=camping&isFromPropertyPage=true/",
        "latitude": 24.3648016,
        "longitude": 120.8751094
    },
    {
        "code": 39683,
        "name": "微笑灣農場｜無邊際泳池、百萬夜景、景觀露營車",
        "city": "宜蘭縣",
        "district": "頭城鎮",
        "url": "https://asiayo.com/zh-tw/view/tw/yilan-county/39683/?tags=camping&isFromPropertyPage=true/",
        "latitude": 24.87812818,
        "longitude": 121.82564858
    },
    {
        "code": 40572,
        "name": "南洋62之森",
        "city": "苗栗縣",
        "district": "南庄鄉",
        "url": "https://asiayo.com/zh-tw/view/tw/miaoli-county/40572/?tags=camping&isFromPropertyPage=true/",
        "latitude": 24.574028,
        "longitude": 120.997734
    },
    {
        "code": 40499,
        "name": "那山那谷｜特色露營車、懶人露營",
        "city": "宜蘭縣",
        "district": "南澳鄉",
        "url": "https://asiayo.com/zh-tw/view/tw/yilan-county/40499/?tags=camping&isFromPropertyPage=true/",
        "latitude": 24.4365633,
        "longitude": 121.749354
    },
    {
        "code": 42206,
        "name": "億享天開歡樂農場｜免裝備、小木屋",
        "city": "台中市",
        "district": "東勢區",
        "url": "https://asiayo.com/zh-tw/view/tw/taichung-city/42206/?tags=camping&isFromPropertyPage=true/",
        "latitude": 24.2652103,
        "longitude": 120.8392953
    },
    {
        "code": 28998,
        "name": "苗栗鹿場850 木屋民宿｜可4-14人包棟 | 露營野趣",
        "city": "苗栗縣",
        "district": "南庄鄉",
        "url": "https://asiayo.com/zh-tw/view/tw/miaoli-county/28998/?tags=camping&isFromPropertyPage=true/",
        "latitude": 24.5419369,
        "longitude": 121.02813046
    },
    {
        "code": 39548,
        "name": "歐鄉莊園",
        "city": "彰化縣",
        "district": "員林市",
        "url": "https://asiayo.com/zh-tw/view/tw/changhua-county/39548/?tags=camping&isFromPropertyPage=true/",
        "latitude": 23.9721736,
        "longitude": 120.5653009
    }
]