[
    {
        "code": 44976,
        "name": "南庄山河苑露營區丨遊獵帳、獨立衛浴、近南庄老街",
        "city": "苗栗縣",
        "district": "南庄鄉",
        "url": "https://asiayo.com/zh-tw/view/tw/miaoli-county/44976/?tags=camping&isFromPropertyPage=true/",
        "latitude": 24.5757138,
        "longitude": 120.9884343
    },
    {
        "code": 40446,
        "name": "斷橋部落 • 輕奢露營｜交通便利、贈豪華烤肉晚餐",
        "city": "苗栗縣",
        "district": "三義鄉",
        "url": "https://asiayo.com/zh-tw/view/tw/miaoli-county/40446/?tags=camping&isFromPropertyPage=true/",
        "latitude": 24.3554757,
        "longitude": 120.7744344
    },
    {
        "code": 39348,
        "name": "山裡面的嵐卡｜一帳一區祕境露營、可加購餐點",
        "city": "南投縣",
        "district": "信義鄉",
        "url": "https://asiayo.com/zh-tw/view/tw/nantou-county/39348/?tags=camping&isFromPropertyPage=true/",
        "latitude": 23.7943056,
        "longitude": 120.96325
    },
    {
        "code": 40364,
        "name": "衝到山上去放空｜屋脊帳、豪華露營、可選購烤肉",
        "city": "苗栗縣",
        "district": "公館鄉",
        "url": "https://asiayo.com/zh-tw/view/tw/miaoli-county/40364/?tags=camping&isFromPropertyPage=true/",
        "latitude": 24.48404591,
        "longitude": 120.83839947
    },
    {
        "code": 40441,
        "name": "暮沐露營小庄｜全新星球帳、民宿",
        "city": "南投縣",
        "district": "魚池鄉",
        "url": "https://asiayo.com/zh-tw/view/tw/nantou-county/40441/?tags=camping&isFromPropertyPage=true/",
        "latitude": 23.9108916,
        "longitude": 120.8873889
    },
    {
        "code": 45130,
        "name": "基路伯營區｜獨家7折起！近清境農場、星空露營屋",
        "city": "南投縣",
        "district": "仁愛鄉",
        "url": "https://asiayo.com/zh-tw/view/tw/nantou-county/45130/?tags=camping&isFromPropertyPage=true/",
        "latitude": 24.03388817,
        "longitude": 121.14192927
    },
    {
        "code": 39385,
        "name": "拂水山莊｜可選購一泊二食、絕美神殿帳",
        "city": "南投縣",
        "district": "魚池鄉",
        "url": "https://asiayo.com/zh-tw/view/tw/nantou-county/39385/?tags=camping&isFromPropertyPage=true/",
        "latitude": 23.90376969,
        "longitude": 120.95865655
    },
    {
        "code": 39226,
        "name": "緣溪行森林營地｜一泊二食送迎賓點心、親子友善",
        "city": "南投縣",
        "district": "埔里鎮",
        "url": "https://asiayo.com/zh-tw/view/tw/nantou-county/39226/?tags=camping&isFromPropertyPage=true/",
        "latitude": 23.9769115,
        "longitude": 120.9896643
    },
    {
        "code": 46223,
        "name": "埔里桂花庭生態營地｜新上架！南投懶人露營、CP值高",
        "city": "南投縣",
        "district": "埔里鎮",
        "url": "https://asiayo.com/zh-tw/view/tw/nantou-county/46223/?tags=camping&isFromPropertyPage=true/",
        "latitude": 23.9500867,
        "longitude": 120.9662745
    },
    {
        "code": 40573,
        "name": "荒野半島｜無敵湖景豪華露營、一泊二食贈體驗、附冷氣",
        "city": "苗栗縣",
        "district": "頭屋鄉",
        "url": "https://asiayo.com/zh-tw/view/tw/miaoli-county/40573/?tags=camping&isFromPropertyPage=true/",
        "latitude": 24.5836172,
        "longitude": 120.8974887
    },
    {
        "code": 39864,
        "name": "野趣凍頂-奢華露營｜春節初一至初四加碼抽獎活動/獨立衛浴",
        "city": "南投縣",
        "district": "鹿谷鄉",
        "url": "https://asiayo.com/zh-tw/view/tw/nantou-county/39864/?tags=camping&isFromPropertyPage=true/",
        "latitude": 23.74622607,
        "longitude": 120.76352097
    },
    {
        "code": 39493,
        "name": "春友彩虹豪華露營｜獨家8折起！可選購一泊四食、擂茶體驗",
        "city": "苗栗縣",
        "district": "南庄鄉",
        "url": "https://asiayo.com/zh-tw/view/tw/miaoli-county/39493/?tags=camping&isFromPropertyPage=true/",
        "latitude": 24.613061,
        "longitude": 121.003811
    },
    {
        "code": 45088,
        "name": "川夏野奢露營區 kawanatsu camp丨一泊二食神殿帳、豪華露營車",
        "city": "苗栗縣",
        "district": "南庄鄉",
        "url": "https://asiayo.com/zh-tw/view/tw/miaoli-county/45088/?tags=camping&isFromPropertyPage=true/",
        "latitude": 24.5740028,
        "longitude": 120.9853145
    },
    {
        "code": 39314,
        "name": "山思雲想｜獨家8折起！一泊四食、職人體驗",
        "city": "南投縣",
        "district": "竹山鎮",
        "url": "https://asiayo.com/zh-tw/view/tw/nantou-county/39314/?tags=camping&isFromPropertyPage=true/",
        "latitude": 23.6970962,
        "longitude": 120.7129014
    },
    {
        "code": 40178,
        "name": "高巢農場｜異國帳篷、露營車、獨立衛浴",
        "city": "花蓮縣",
        "district": "秀林鄉",
        "url": "https://asiayo.com/zh-tw/view/tw/hualien-county/40178/?tags=camping&isFromPropertyPage=true/",
        "latitude": 24.15476501,
        "longitude": 121.66212453
    },
    {
        "code": 40744,
        "name": "拾階莊園｜豪華露營車、小木屋、近內灣老街",
        "city": "新竹縣",
        "district": "橫山鄉",
        "url": "https://asiayo.com/zh-tw/view/tw/hsinchu-county/40744/?tags=camping&isFromPropertyPage=true/",
        "latitude": 24.7012664,
        "longitude": 121.1814647
    },
    {
        "code": 39856,
        "name": "覓靜莊園｜免裝備高海拔、兒童遊樂設施！",
        "city": "台中市",
        "district": "和平區",
        "url": "https://asiayo.com/zh-tw/view/tw/taichung-city/39856/?tags=camping&isFromPropertyPage=true/",
        "latitude": 24.1640455,
        "longitude": 120.9520671
    },
    {
        "code": 44292,
        "name": "蟬說：夕陽漫漫｜一泊二食，加碼送下午茶！",
        "city": "台中市",
        "district": "清水區",
        "url": "https://asiayo.com/zh-tw/view/tw/taichung-city/44292/?tags=camping&isFromPropertyPage=true/",
        "latitude": 24.3052935,
        "longitude": 120.5476094
    },
    {
        "code": 45590,
        "name": "曼漫落羽松奶凍車莊園｜獨家奶凍露營車、寵物友善",
        "city": "宜蘭縣",
        "district": "三星鄉",
        "url": "https://asiayo.com/zh-tw/view/tw/yilan-county/45590/?tags=camping&isFromPropertyPage=true/",
        "latitude": 24.7023783,
        "longitude": 121.743373
    },
    {
        "code": 34503,
        "name": "踏浪星辰露營Camp｜晚鳥優惠95折！海景豪華露營+附早餐",
        "city": "花蓮縣",
        "district": "新城鄉",
        "url": "https://asiayo.com/zh-tw/view/tw/hualien-county/34503/?tags=camping&isFromPropertyPage=true/",
        "latitude": 24.02570644,
        "longitude": 121.63183482
    },
    {
        "code": 44961,
        "name": "蟬說：霧繞｜一泊二食再送迎賓點心",
        "city": "新竹縣",
        "district": "五峰鄉",
        "url": "https://asiayo.com/zh-tw/view/tw/hsinchu-county/44961/?tags=camping&isFromPropertyPage=true/",
        "latitude": 24.5772603,
        "longitude": 121.0947833
    },
    {
        "code": 49214,
        "name": "歸樸森活｜2/15~2/29 試營運7折、一泊一食加贈下午茶",
        "city": "嘉義縣",
        "district": "番路鄉",
        "url": "https://asiayo.com/zh-tw/view/tw/chiayi-county/49214/?tags=camping&isFromPropertyPage=true/",
        "latitude": 23.455763,
        "longitude": 120.5529825
    },
    {
        "code": 39630,
        "name": "森渼原｜豪華露營、一泊三食",
        "city": "台中市",
        "district": "外埔區",
        "url": "https://asiayo.com/zh-tw/view/tw/taichung-city/39630/?tags=camping&isFromPropertyPage=true/",
        "latitude": 24.3295315,
        "longitude": 120.6204619
    },
    {
        "code": 40745,
        "name": "樂悠悠露營區｜獨家6折起！神殿帳、懶人露營",
        "city": "台中市",
        "district": "和平區",
        "url": "https://asiayo.com/zh-tw/view/tw/taichung-city/40745/?tags=camping&isFromPropertyPage=true/",
        "latitude": 24.14970432,
        "longitude": 120.96430844
    },
    {
        "code": 41790,
        "name": "呆呆的家-免搭帳露營｜六星級衛浴、附烤肉用具",
        "city": "台中市",
        "district": "和平區",
        "url": "https://asiayo.com/zh-tw/view/tw/taichung-city/41790/?tags=camping&isFromPropertyPage=true/",
        "latitude": 24.1690852,
        "longitude": 120.9583226
    },
    {
        "code": 44639,
        "name": "浮岸別境｜懶人露營、一泊三食",
        "city": "苗栗縣",
        "district": "泰安鄉",
        "url": "https://asiayo.com/zh-tw/view/tw/miaoli-county/44639/?tags=camping&isFromPropertyPage=true/",
        "latitude": 24.4075597,
        "longitude": 120.9384924
    },
    {
        "code": 41599,
        "name": "花鳥蟲鳴高山露營區｜近清境、雲海美景",
        "city": "南投縣",
        "district": "仁愛鄉",
        "url": "https://asiayo.com/zh-tw/view/tw/nantou-county/41599/?tags=camping&isFromPropertyPage=true/",
        "latitude": 24.07480122,
        "longitude": 121.17140069
    },
    {
        "code": 46853,
        "name": "蟬說：山中靜靜｜新上架豪華露營一泊二食、雲霧繚繞",
        "city": "台中市",
        "district": "太平區",
        "url": "https://asiayo.com/zh-tw/view/tw/taichung-city/46853/?tags=camping&isFromPropertyPage=true/",
        "latitude": 24.1244873,
        "longitude": 120.8150702
    },
    {
        "code": 49233,
        "name": "愛聚時光露營區｜全新上架、山屋狩獵帳、一泊四食＋手作",
        "city": "南投縣",
        "district": "埔里鎮",
        "url": "https://asiayo.com/zh-tw/view/tw/nantou-county/49233/?tags=camping&isFromPropertyPage=true/",
        "latitude": 23.9503606,
        "longitude": 120.9193805
    },
    {
        "code": 39219,
        "name": "太平山森活趣渡假農場 | 露營車、免裝備露營、全新楓林房型",
        "city": "宜蘭縣",
        "district": "大同鄉",
        "url": "https://asiayo.com/zh-tw/view/tw/yilan-county/39219/?tags=camping&isFromPropertyPage=true/",
        "latitude": 24.5218567,
        "longitude": 121.4474264
    },
    {
        "code": 39439,
        "name": "東風綠活｜懶人、新手露營區。免裝備輕鬆露營趣",
        "city": "宜蘭縣",
        "district": "冬山鄉",
        "url": "https://asiayo.com/zh-tw/view/tw/yilan-county/39439/?tags=camping&isFromPropertyPage=true/",
        "latitude": 24.6183044,
        "longitude": 121.7304403
    },
    {
        "code": 39217,
        "name": "野石森林露營區",
        "city": "宜蘭縣",
        "district": "大同鄉",
        "url": "https://asiayo.com/zh-tw/view/tw/yilan-county/39217/?tags=camping&isFromPropertyPage=true/",
        "latitude": 24.61025711,
        "longitude": 121.68937062
    },
    {
        "code": 40718,
        "name": "悠野’s 豪華露營｜獨家95折起！全新景觀屋、一泊三食、再送體驗",
        "city": "新竹縣",
        "district": "尖石鄉",
        "url": "https://asiayo.com/zh-tw/view/tw/hsinchu-county/40718/?tags=camping&isFromPropertyPage=true/",
        "latitude": 24.7089438,
        "longitude": 121.2680607
    },
    {
        "code": 43993,
        "name": "天ㄟ露營車｜指定日加碼免費升級『一泊三食』",
        "city": "宜蘭縣",
        "district": "冬山鄉",
        "url": "https://asiayo.com/zh-tw/view/tw/yilan-county/43993/?tags=camping&isFromPropertyPage=true/",
        "latitude": 24.645634,
        "longitude": 121.732634
    },
    {
        "code": 42123,
        "name": "地熱旅居｜落羽松、觀星、露營車",
        "city": "宜蘭縣",
        "district": "大同鄉",
        "url": "https://asiayo.com/zh-tw/view/tw/yilan-county/42123/?tags=camping&isFromPropertyPage=true/",
        "latitude": 24.6319739,
        "longitude": 121.6086561
    },
    {
        "code": 44974,
        "name": "蟬說：霧語｜一泊二食再送迎賓點心、雲海、夜景",
        "city": "新竹縣",
        "district": "五峰鄉",
        "url": "https://asiayo.com/zh-tw/view/tw/hsinchu-county/44974/?tags=camping&isFromPropertyPage=true/",
        "latitude": 24.5844976,
        "longitude": 121.0822307
    },
    {
        "code": 44098,
        "name": "春露茶園｜高海拔、神殿帳、親子露營",
        "city": "台中市",
        "district": "和平區",
        "url": "https://asiayo.com/zh-tw/view/tw/taichung-city/44098/?tags=camping&isFromPropertyPage=true/",
        "latitude": 24.1482033,
        "longitude": 120.9633551
    },
    {
        "code": 40274,
        "name": "樹語星晴｜平日入住8折優惠、加購海陸頂級烤肉",
        "city": "苗栗縣",
        "district": "公館鄉",
        "url": "https://asiayo.com/zh-tw/view/tw/miaoli-county/40274/?tags=camping&isFromPropertyPage=true/",
        "latitude": 24.4830556,
        "longitude": 120.8388889
    },
    {
        "code": 44300,
        "name": "小份美露營區｜露營車、露營屋",
        "city": "苗栗縣",
        "district": "三灣鄉",
        "url": "https://asiayo.com/zh-tw/view/tw/miaoli-county/44300/?tags=camping&isFromPropertyPage=true/",
        "latitude": 24.669899,
        "longitude": 120.950817
    },
    {
        "code": 39866,
        "name": "卡爾小鎮｜早鳥八折起！清境星空露營車、星空夢幻帳",
        "city": "南投縣",
        "district": "仁愛鄉",
        "url": "https://asiayo.com/zh-tw/view/tw/nantou-county/39866/?tags=camping&isFromPropertyPage=true/",
        "latitude": 24.1034249,
        "longitude": 121.1946144
    },
    {
        "code": 47145,
        "name": "陌野露營車驛站｜新上架！豪華露營車、獨立露臺、寵物友善",
        "city": "南投縣",
        "district": "魚池鄉",
        "url": "https://asiayo.com/zh-tw/view/tw/nantou-county/47145/?tags=camping&isFromPropertyPage=true/",
        "latitude": 23.8669415,
        "longitude": 120.9067058
    },
    {
        "code": 42487,
        "name": "柚香露露｜大人味好料，貢鍋麻辣+就是愛海鮮",
        "city": "苗栗縣",
        "district": "銅鑼鄉",
        "url": "https://asiayo.com/zh-tw/view/tw/miaoli-county/42487/?tags=camping&isFromPropertyPage=true/",
        "latitude": 24.5318856,
        "longitude": 120.8055288
    },
    {
        "code": 39396,
        "name": "見晴花園渡假山莊｜可選購樓中樓帳篷、露營車",
        "city": "南投縣",
        "district": "仁愛鄉",
        "url": "https://asiayo.com/zh-tw/view/tw/nantou-county/39396/?tags=camping&isFromPropertyPage=true/",
        "latitude": 24.0415579,
        "longitude": 121.1582995
    },
    {
        "code": 40612,
        "name": "海洋露營區｜豪華露營、無敵海景、附冷氣！",
        "city": "花蓮縣",
        "district": "壽豐鄉",
        "url": "https://asiayo.com/zh-tw/view/tw/hualien-county/40612/?tags=camping&isFromPropertyPage=true/",
        "latitude": 23.9222315,
        "longitude": 121.6069405
    },
    {
        "code": 46982,
        "name": "水与松森林莊園｜一泊三食+手做DIY、無邊際泳池",
        "city": "南投縣",
        "district": "埔里鎮",
        "url": "https://asiayo.com/zh-tw/view/tw/nantou-county/46982/?tags=camping&isFromPropertyPage=true/",
        "latitude": 23.9652323,
        "longitude": 120.9442845
    },
    {
        "code": 39373,
        "name": "白鹿營區｜親子首選、高 CP 值彩色合掌屋",
        "city": "南投縣",
        "district": "魚池鄉",
        "url": "https://asiayo.com/zh-tw/view/tw/nantou-county/39373/?tags=camping&isFromPropertyPage=true/",
        "latitude": 23.883603,
        "longitude": 120.920693
    },
    {
        "code": 37719,
        "name": "晃晃印地安露營區｜神殿帳、附早餐、戲水池",
        "city": "桃園市",
        "district": "龍潭區",
        "url": "https://asiayo.com/zh-tw/view/tw/taoyuan-city/37719/?tags=camping&isFromPropertyPage=true/",
        "latitude": 24.8555769,
        "longitude": 121.2439967
    },
    {
        "code": 39683,
        "name": "微笑灣農場｜無邊際泳池、百萬夜景、景觀露營車",
        "city": "宜蘭縣",
        "district": "頭城鎮",
        "url": "https://asiayo.com/zh-tw/view/tw/yilan-county/39683/?tags=camping&isFromPropertyPage=true/",
        "latitude": 24.87812818,
        "longitude": 121.82564858
    },
    {
        "code": 40572,
        "name": "南洋62之森",
        "city": "苗栗縣",
        "district": "南庄鄉",
        "url": "https://asiayo.com/zh-tw/view/tw/miaoli-county/40572/?tags=camping&isFromPropertyPage=true/",
        "latitude": 24.574028,
        "longitude": 120.997734
    }
]