[
    {
        "code": 44976,
        "name": "南庄山河苑露營區丨遊獵帳、獨立衛浴、近南庄老街",
        "city": "苗栗縣",
        "district": "南庄鄉",
        "url": "https://asiayo.com/zh-tw/view/tw/miaoli-county/44976/?tags=camping&isFromPropertyPage=true/",
        "latitude": 24.5757138,
        "longitude": 120.9884343
    },
    {
        "code": 39348,
        "name": "山裡面的嵐卡｜一帳一區祕境露營、可加購餐點",
        "city": "南投縣",
        "district": "信義鄉",
        "url": "https://asiayo.com/zh-tw/view/tw/nantou-county/39348/?tags=camping&isFromPropertyPage=true/",
        "latitude": 23.7943056,
        "longitude": 120.96325
    },
    {
        "code": 40364,
        "name": "衝到山上去放空｜屋脊帳、豪華露營、可選購烤肉",
        "city": "苗栗縣",
        "district": "公館鄉",
        "url": "https://asiayo.com/zh-tw/view/tw/miaoli-county/40364/?tags=camping&isFromPropertyPage=true/",
        "latitude": 24.48404591,
        "longitude": 120.83839947
    },
    {
        "code": 40441,
        "name": "暮沐露營小庄｜全新星球帳、民宿",
        "city": "南投縣",
        "district": "魚池鄉",
        "url": "https://asiayo.com/zh-tw/view/tw/nantou-county/40441/?tags=camping&isFromPropertyPage=true/",
        "latitude": 23.9108916,
        "longitude": 120.8873889
    },
    {
        "code": 39385,
        "name": "拂水山莊｜可選購一泊二食、絕美神殿帳",
        "city": "南投縣",
        "district": "魚池鄉",
        "url": "https://asiayo.com/zh-tw/view/tw/nantou-county/39385/?tags=camping&isFromPropertyPage=true/",
        "latitude": 23.90376969,
        "longitude": 120.95865655
    },
    {
        "code": 45130,
        "name": "基路伯營區｜獨家7折起！近清境農場、星空露營屋",
        "city": "南投縣",
        "district": "仁愛鄉",
        "url": "https://asiayo.com/zh-tw/view/tw/nantou-county/45130/?tags=camping&isFromPropertyPage=true/",
        "latitude": 24.03388817,
        "longitude": 121.14192927
    },
    {
        "code": 39226,
        "name": "緣溪行森林營地｜一泊二食送迎賓點心、親子友善",
        "city": "南投縣",
        "district": "埔里鎮",
        "url": "https://asiayo.com/zh-tw/view/tw/nantou-county/39226/?tags=camping&isFromPropertyPage=true/",
        "latitude": 23.9769115,
        "longitude": 120.9896643
    },
    {
        "code": 46223,
        "name": "埔里桂花庭生態營地｜新上架！南投懶人露營、CP值高",
        "city": "南投縣",
        "district": "埔里鎮",
        "url": "https://asiayo.com/zh-tw/view/tw/nantou-county/46223/?tags=camping&isFromPropertyPage=true/",
        "latitude": 23.9500867,
        "longitude": 120.9662745
    },
    {
        "code": 39864,
        "name": "野趣凍頂-奢華露營｜春節初一至初四加碼抽獎活動/獨立衛浴",
        "city": "南投縣",
        "district": "鹿谷鄉",
        "url": "https://asiayo.com/zh-tw/view/tw/nantou-county/39864/?tags=camping&isFromPropertyPage=true/",
        "latitude": 23.74622607,
        "longitude": 120.76352097
    },
    {
        "code": 39493,
        "name": "春友彩虹豪華露營｜獨家8折起！可選購一泊四食、擂茶體驗",
        "city": "苗栗縣",
        "district": "南庄鄉",
        "url": "https://asiayo.com/zh-tw/view/tw/miaoli-county/39493/?tags=camping&isFromPropertyPage=true/",
        "latitude": 24.613061,
        "longitude": 121.003811
    },
    {
        "code": 39314,
        "name": "山思雲想｜獨家8折起！一泊四食、職人體驗",
        "city": "南投縣",
        "district": "竹山鎮",
        "url": "https://asiayo.com/zh-tw/view/tw/nantou-county/39314/?tags=camping&isFromPropertyPage=true/",
        "latitude": 23.6970962,
        "longitude": 120.7129014
    },
    {
        "code": 40178,
        "name": "高巢農場｜異國帳篷、露營車、獨立衛浴",
        "city": "花蓮縣",
        "district": "秀林鄉",
        "url": "https://asiayo.com/zh-tw/view/tw/hualien-county/40178/?tags=camping&isFromPropertyPage=true/",
        "latitude": 24.15476501,
        "longitude": 121.66212453
    },
    {
        "code": 40744,
        "name": "拾階莊園｜豪華露營車、小木屋、近內灣老街",
        "city": "新竹縣",
        "district": "橫山鄉",
        "url": "https://asiayo.com/zh-tw/view/tw/hsinchu-county/40744/?tags=camping&isFromPropertyPage=true/",
        "latitude": 24.7012664,
        "longitude": 121.1814647
    },
    {
        "code": 39216,
        "name": "安農露營區｜附露營車、自搭帳、游泳池",
        "city": "宜蘭縣",
        "district": "三星鄉",
        "url": "https://asiayo.com/zh-tw/view/tw/yilan-county/39216/?tags=camping&isFromPropertyPage=true/",
        "latitude": 24.65565644,
        "longitude": 121.64790127
    },
    {
        "code": 44292,
        "name": "蟬說：夕陽漫漫｜一泊二食，加碼送下午茶！",
        "city": "台中市",
        "district": "清水區",
        "url": "https://asiayo.com/zh-tw/view/tw/taichung-city/44292/?tags=camping&isFromPropertyPage=true/",
        "latitude": 24.3052935,
        "longitude": 120.5476094
    },
    {
        "code": 49214,
        "name": "歸樸森活｜2/15~2/29 試營運7折、一泊一食加贈下午茶",
        "city": "嘉義縣",
        "district": "番路鄉",
        "url": "https://asiayo.com/zh-tw/view/tw/chiayi-county/49214/?tags=camping&isFromPropertyPage=true/",
        "latitude": 23.455763,
        "longitude": 120.5529825
    },
    {
        "code": 39630,
        "name": "森渼原｜豪華露營、一泊三食",
        "city": "台中市",
        "district": "外埔區",
        "url": "https://asiayo.com/zh-tw/view/tw/taichung-city/39630/?tags=camping&isFromPropertyPage=true/",
        "latitude": 24.3295315,
        "longitude": 120.6204619
    },
    {
        "code": 40745,
        "name": "樂悠悠露營區｜獨家6折起！神殿帳、懶人露營",
        "city": "台中市",
        "district": "和平區",
        "url": "https://asiayo.com/zh-tw/view/tw/taichung-city/40745/?tags=camping&isFromPropertyPage=true/",
        "latitude": 24.14970432,
        "longitude": 120.96430844
    },
    {
        "code": 41790,
        "name": "呆呆的家-免搭帳露營｜六星級衛浴、附烤肉用具",
        "city": "台中市",
        "district": "和平區",
        "url": "https://asiayo.com/zh-tw/view/tw/taichung-city/41790/?tags=camping&isFromPropertyPage=true/",
        "latitude": 24.1690852,
        "longitude": 120.9583226
    },
    {
        "code": 44639,
        "name": "浮岸別境｜懶人露營、一泊三食",
        "city": "苗栗縣",
        "district": "泰安鄉",
        "url": "https://asiayo.com/zh-tw/view/tw/miaoli-county/44639/?tags=camping&isFromPropertyPage=true/",
        "latitude": 24.4075597,
        "longitude": 120.9384924
    },
    {
        "code": 41599,
        "name": "花鳥蟲鳴高山露營區｜近清境、雲海美景",
        "city": "南投縣",
        "district": "仁愛鄉",
        "url": "https://asiayo.com/zh-tw/view/tw/nantou-county/41599/?tags=camping&isFromPropertyPage=true/",
        "latitude": 24.07480122,
        "longitude": 121.17140069
    },
    {
        "code": 49233,
        "name": "愛聚時光露營區｜全新上架、山屋狩獵帳、一泊四食＋手作",
        "city": "南投縣",
        "district": "埔里鎮",
        "url": "https://asiayo.com/zh-tw/view/tw/nantou-county/49233/?tags=camping&isFromPropertyPage=true/",
        "latitude": 23.9503606,
        "longitude": 120.9193805
    },
    {
        "code": 39219,
        "name": "太平山森活趣渡假農場 | 露營車、免裝備露營、全新楓林房型",
        "city": "宜蘭縣",
        "district": "大同鄉",
        "url": "https://asiayo.com/zh-tw/view/tw/yilan-county/39219/?tags=camping&isFromPropertyPage=true/",
        "latitude": 24.5218567,
        "longitude": 121.4474264
    },
    {
        "code": 39439,
        "name": "東風綠活｜懶人、新手露營區。免裝備輕鬆露營趣",
        "city": "宜蘭縣",
        "district": "冬山鄉",
        "url": "https://asiayo.com/zh-tw/view/tw/yilan-county/39439/?tags=camping&isFromPropertyPage=true/",
        "latitude": 24.6183044,
        "longitude": 121.7304403
    },
    {
        "code": 39217,
        "name": "野石森林露營區",
        "city": "宜蘭縣",
        "district": "大同鄉",
        "url": "https://asiayo.com/zh-tw/view/tw/yilan-county/39217/?tags=camping&isFromPropertyPage=true/",
        "latitude": 24.61025711,
        "longitude": 121.68937062
    },
    {
        "code": 39261,
        "name": "田野森農場｜包區豪華露營一泊二食、附冷氣獨立衛浴",
        "city": "宜蘭縣",
        "district": "冬山鄉",
        "url": "https://asiayo.com/zh-tw/view/tw/yilan-county/39261/?tags=camping&isFromPropertyPage=true/",
        "latitude": 24.632949,
        "longitude": 121.720651
    },
    {
        "code": 42123,
        "name": "地熱旅居｜落羽松、觀星、露營車",
        "city": "宜蘭縣",
        "district": "大同鄉",
        "url": "https://asiayo.com/zh-tw/view/tw/yilan-county/42123/?tags=camping&isFromPropertyPage=true/",
        "latitude": 24.6319739,
        "longitude": 121.6086561
    },
    {
        "code": 44098,
        "name": "春露茶園｜高海拔、神殿帳、親子露營",
        "city": "台中市",
        "district": "和平區",
        "url": "https://asiayo.com/zh-tw/view/tw/taichung-city/44098/?tags=camping&isFromPropertyPage=true/",
        "latitude": 24.1482033,
        "longitude": 120.9633551
    },
    {
        "code": 44300,
        "name": "小份美露營區｜露營車、露營屋",
        "city": "苗栗縣",
        "district": "三灣鄉",
        "url": "https://asiayo.com/zh-tw/view/tw/miaoli-county/44300/?tags=camping&isFromPropertyPage=true/",
        "latitude": 24.669899,
        "longitude": 120.950817
    },
    {
        "code": 42487,
        "name": "柚香露露｜大人味好料，貢鍋麻辣+就是愛海鮮",
        "city": "苗栗縣",
        "district": "銅鑼鄉",
        "url": "https://asiayo.com/zh-tw/view/tw/miaoli-county/42487/?tags=camping&isFromPropertyPage=true/",
        "latitude": 24.5318856,
        "longitude": 120.8055288
    },
    {
        "code": 39396,
        "name": "見晴花園渡假山莊｜可選購樓中樓帳篷、露營車",
        "city": "南投縣",
        "district": "仁愛鄉",
        "url": "https://asiayo.com/zh-tw/view/tw/nantou-county/39396/?tags=camping&isFromPropertyPage=true/",
        "latitude": 24.0415579,
        "longitude": 121.1582995
    },
    {
        "code": 40612,
        "name": "海洋露營區｜豪華露營、無敵海景、附冷氣！",
        "city": "花蓮縣",
        "district": "壽豐鄉",
        "url": "https://asiayo.com/zh-tw/view/tw/hualien-county/40612/?tags=camping&isFromPropertyPage=true/",
        "latitude": 23.9222315,
        "longitude": 121.6069405
    },
    {
        "code": 39373,
        "name": "白鹿營區｜親子首選、高 CP 值彩色合掌屋",
        "city": "南投縣",
        "district": "魚池鄉",
        "url": "https://asiayo.com/zh-tw/view/tw/nantou-county/39373/?tags=camping&isFromPropertyPage=true/",
        "latitude": 23.883603,
        "longitude": 120.920693
    },
    {
        "code": 37719,
        "name": "晃晃印地安露營區｜神殿帳、附早餐、戲水池",
        "city": "桃園市",
        "district": "龍潭區",
        "url": "https://asiayo.com/zh-tw/view/tw/taoyuan-city/37719/?tags=camping&isFromPropertyPage=true/",
        "latitude": 24.8555769,
        "longitude": 121.2439967
    },
    {
        "code": 45678,
        "name": "山美學｜豪華露營、一泊二食、露營車",
        "city": "苗栗縣",
        "district": "大湖鄉",
        "url": "https://asiayo.com/zh-tw/view/tw/miaoli-county/45678/?tags=camping&isFromPropertyPage=true/",
        "latitude": 24.3648016,
        "longitude": 120.8751094
    },
    {
        "code": 39683,
        "name": "微笑灣農場｜無邊際泳池、百萬夜景、景觀露營車",
        "city": "宜蘭縣",
        "district": "頭城鎮",
        "url": "https://asiayo.com/zh-tw/view/tw/yilan-county/39683/?tags=camping&isFromPropertyPage=true/",
        "latitude": 24.87812818,
        "longitude": 121.82564858
    },
    {
        "code": 40572,
        "name": "南洋62之森",
        "city": "苗栗縣",
        "district": "南庄鄉",
        "url": "https://asiayo.com/zh-tw/view/tw/miaoli-county/40572/?tags=camping&isFromPropertyPage=true/",
        "latitude": 24.574028,
        "longitude": 120.997734
    },
    {
        "code": 42206,
        "name": "億享天開歡樂農場｜免裝備、小木屋",
        "city": "台中市",
        "district": "東勢區",
        "url": "https://asiayo.com/zh-tw/view/tw/taichung-city/42206/?tags=camping&isFromPropertyPage=true/",
        "latitude": 24.2652103,
        "longitude": 120.8392953
    },
    {
        "code": 28998,
        "name": "苗栗鹿場850 木屋民宿｜可4-14人包棟 | 露營野趣",
        "city": "苗栗縣",
        "district": "南庄鄉",
        "url": "https://asiayo.com/zh-tw/view/tw/miaoli-county/28998/?tags=camping&isFromPropertyPage=true/",
        "latitude": 24.5419369,
        "longitude": 121.02813046
    },
    {
        "code": 40499,
        "name": "那山那谷｜特色露營車、懶人露營",
        "city": "宜蘭縣",
        "district": "南澳鄉",
        "url": "https://asiayo.com/zh-tw/view/tw/yilan-county/40499/?tags=camping&isFromPropertyPage=true/",
        "latitude": 24.4365633,
        "longitude": 121.749354
    },
    {
        "code": 39548,
        "name": "歐鄉莊園",
        "city": "彰化縣",
        "district": "員林市",
        "url": "https://asiayo.com/zh-tw/view/tw/changhua-county/39548/?tags=camping&isFromPropertyPage=true/",
        "latitude": 23.9721736,
        "longitude": 120.5653009
    },
    {
        "code": 44200,
        "name": "飛鳥恰恰",
        "city": "新竹縣",
        "district": "五峰鄉",
        "url": "https://asiayo.com/zh-tw/view/tw/hsinchu-county/44200/?tags=camping&isFromPropertyPage=true/",
        "latitude": 24.6578627,
        "longitude": 121.1728902
    },
    {
        "code": 39466,
        "name": "泰里埔露營區",
        "city": "新竹縣",
        "district": "尖石鄉",
        "url": "https://asiayo.com/zh-tw/view/tw/hsinchu-county/39466/?tags=camping&isFromPropertyPage=true/",
        "latitude": 24.6712211,
        "longitude": 121.2952729
    },
    {
        "code": 10594,
        "name": "空中邊境｜豪華露營、無敵百萬夜景／免費停車場／兒童遊戲區",
        "city": "南投縣",
        "district": "竹山鎮",
        "url": "https://asiayo.com/zh-tw/view/tw/nantou-county/10594/?tags=camping&isFromPropertyPage=true/",
        "latitude": 23.698542,
        "longitude": 120.713391
    },
    {
        "code": 39383,
        "name": "白鹿窯莊園｜ 鄰近曰月潭、彩色露營屋",
        "city": "南投縣",
        "district": "魚池鄉",
        "url": "https://asiayo.com/zh-tw/view/tw/nantou-county/39383/?tags=camping&isFromPropertyPage=true/",
        "latitude": 23.90343162,
        "longitude": 120.92744689
    },
    {
        "code": 44019,
        "name": "趣兒Chill:藍鵲菲菲｜一泊三食",
        "city": "台北市",
        "district": "士林區",
        "url": "https://asiayo.com/zh-tw/view/tw/taipei-city/44019/?tags=camping&isFromPropertyPage=true/",
        "latitude": 25.1521217,
        "longitude": 121.5585331
    },
    {
        "code": 40279,
        "name": "靜月居｜小木屋及露營體驗",
        "city": "新竹縣",
        "district": "峨眉鄉",
        "url": "https://asiayo.com/zh-tw/view/tw/hsinchu-county/40279/?tags=camping&isFromPropertyPage=true/",
        "latitude": 24.671461,
        "longitude": 120.9942721
    },
    {
        "code": 39225,
        "name": "森林蜂味露營區｜提供裝備租借方案",
        "city": "南投縣",
        "district": "埔里鎮",
        "url": "https://asiayo.com/zh-tw/view/tw/nantou-county/39225/?tags=camping&isFromPropertyPage=true/",
        "latitude": 23.9417932,
        "longitude": 120.9249079
    },
    {
        "code": 44811,
        "name": "夏洛克villa民宿 | 豪華懶人露營車",
        "city": "花蓮縣",
        "district": "吉安鄉",
        "url": "https://asiayo.com/zh-tw/view/tw/hualien-county/44811/?tags=camping&isFromPropertyPage=true/",
        "latitude": 23.946083,
        "longitude": 121.541336
    },
    {
        "code": 48879,
        "name": "灣東日出露營拖車｜新上架！日出露營車、鄰近東澳漁港和神秘沙灘",
        "city": "宜蘭縣",
        "district": "蘇澳鎮",
        "url": "https://asiayo.com/zh-tw/view/tw/yilan-county/48879/?tags=camping&isFromPropertyPage=true/",
        "latitude": 24.5126009,
        "longitude": 121.8361271
    },
    {
        "code": 39687,
        "name": "麗鴻的家｜合掌屋、玩具白沙池、親子釣魚池",
        "city": "南投縣",
        "district": "魚池鄉",
        "url": "https://asiayo.com/zh-tw/view/tw/nantou-county/39687/?tags=camping&isFromPropertyPage=true/",
        "latitude": 23.883603,
        "longitude": 120.920693
    },
    {
        "code": 40668,
        "name": "依星生態農場｜獨家8折起！懶人露營、百萬夜景、雲海、高海拔！",
        "city": "南投縣",
        "district": "中寮鄉",
        "url": "https://asiayo.com/zh-tw/view/tw/nantou-county/40668/?tags=camping&isFromPropertyPage=true/",
        "latitude": 23.960646,
        "longitude": 120.8347411
    },
    {
        "code": 38992,
        "name": "墾丁後壁湖露營車｜平日87折！近海邊、獨立小庭院",
        "city": "屏東縣",
        "district": "墾丁 (恆春鎮)",
        "url": "https://asiayo.com/zh-tw/view/tw/pingtung-county/38992/?tags=camping&isFromPropertyPage=true/",
        "latitude": 21.9481416,
        "longitude": 120.7434251
    },
    {
        "code": 40632,
        "name": "半島秘境-白沙灣濱海民宿｜星球帳、海景豪華露營",
        "city": "新北市",
        "district": "石門區",
        "url": "https://asiayo.com/zh-tw/view/tw/new-taipei-city/40632/?tags=camping&isFromPropertyPage=true/",
        "latitude": 25.286753,
        "longitude": 121.5107687
    },
    {
        "code": 39316,
        "name": "Myasa-迷雅薩休閒農莊露營區",
        "city": "宜蘭縣",
        "district": "南澳鄉",
        "url": "https://asiayo.com/zh-tw/view/tw/yilan-county/39316/?tags=camping&isFromPropertyPage=true/",
        "latitude": 24.46358544,
        "longitude": 121.78668632
    },
    {
        "code": 43770,
        "name": "布拉布拉露營區 BulaBula KC｜南澳懶人露營、可選購餐點",
        "city": "宜蘭縣",
        "district": "南澳鄉",
        "url": "https://asiayo.com/zh-tw/view/tw/yilan-county/43770/?tags=camping&isFromPropertyPage=true/",
        "latitude": 24.52716464,
        "longitude": 121.83206063
    },
    {
        "code": 40719,
        "name": "隱峇里山莊｜露營車、景觀民宿、團體包棟推薦",
        "city": "桃園市",
        "district": "復興區",
        "url": "https://asiayo.com/zh-tw/view/tw/taoyuan-city/40719/?tags=camping&isFromPropertyPage=true/",
        "latitude": 24.8016216,
        "longitude": 121.3713436
    },
    {
        "code": 40528,
        "name": "深山林內生態農場｜全新狩獵帳、星空玻璃屋",
        "city": "南投縣",
        "district": "竹山鎮",
        "url": "https://asiayo.com/zh-tw/view/tw/nantou-county/40528/?tags=camping&isFromPropertyPage=true/",
        "latitude": 23.6869932,
        "longitude": 120.7178432
    },
    {
        "code": 45550,
        "name": "金山驛境｜北海岸懶人露營、可加購騎馬體驗",
        "city": "新北市",
        "district": "金山區",
        "url": "https://asiayo.com/zh-tw/view/tw/new-taipei-city/45550/?tags=camping&isFromPropertyPage=true/",
        "latitude": 25.2252721,
        "longitude": 121.6041087
    },
    {
        "code": 40472,
        "name": "希望之丘｜獨家85折起！全新英倫風露營車、含早餐",
        "city": "宜蘭縣",
        "district": "冬山鄉",
        "url": "https://asiayo.com/zh-tw/view/tw/yilan-county/40472/?tags=camping&isFromPropertyPage=true/",
        "latitude": 24.6336409,
        "longitude": 121.7246153
    },
    {
        "code": 46255,
        "name": "一水綠舟莊園｜全新開幕豪華露營、露營車",
        "city": "台南市",
        "district": "歸仁區",
        "url": "https://asiayo.com/zh-tw/view/tw/tainan-city/46255/?tags=camping&isFromPropertyPage=true/",
        "latitude": 22.9351849,
        "longitude": 120.2858311
    },
    {
        "code": 40272,
        "name": "彩虹星光農園露營區",
        "city": "台中市",
        "district": "石岡區",
        "url": "https://asiayo.com/zh-tw/view/tw/taichung-city/40272/?tags=camping&isFromPropertyPage=true/",
        "latitude": 24.2707017,
        "longitude": 120.7833786
    },
    {
        "code": 45112,
        "name": "廿十八路露營區｜雲海、高海拔！",
        "city": "南投縣",
        "district": "國姓鄉",
        "url": "https://asiayo.com/zh-tw/view/tw/nantou-county/45112/?tags=camping&isFromPropertyPage=true/",
        "latitude": 23.940684,
        "longitude": 120.8346148
    },
    {
        "code": 44738,
        "name": "將軍 微光露營區",
        "city": "台南市",
        "district": "將軍區",
        "url": "https://asiayo.com/zh-tw/view/tw/tainan-city/44738/?tags=camping&isFromPropertyPage=true/",
        "latitude": 23.1890443,
        "longitude": 120.1466688
    },
    {
        "code": 44560,
        "name": "好馬露營區",
        "city": "新竹縣",
        "district": "尖石鄉",
        "url": "https://asiayo.com/zh-tw/view/tw/hsinchu-county/44560/?tags=camping&isFromPropertyPage=true/",
        "latitude": 24.7319627,
        "longitude": 121.2465342
    },
    {
        "code": 44903,
        "name": "山谷樂生態園區民宿露營",
        "city": "宜蘭縣",
        "district": "冬山鄉",
        "url": "https://asiayo.com/zh-tw/view/tw/yilan-county/44903/?tags=camping&isFromPropertyPage=true/",
        "latitude": 24.618358,
        "longitude": 121.730525
    },
    {
        "code": 39334,
        "name": "三生園生態露營區｜草皮營位、五星級浴廁",
        "city": "南投縣",
        "district": "鹿谷鄉",
        "url": "https://asiayo.com/zh-tw/view/tw/nantou-county/39334/?tags=camping&isFromPropertyPage=true/",
        "latitude": 23.7260582,
        "longitude": 120.776549
    },
    {
        "code": 39143,
        "name": "空中邊境露營區｜無敵百萬夜景、免費停車場、兒童遊戲區",
        "city": "南投縣",
        "district": "竹山鎮",
        "url": "https://asiayo.com/zh-tw/view/tw/nantou-county/39143/?tags=camping&isFromPropertyPage=true/",
        "latitude": 23.6984694,
        "longitude": 120.7134601
    },
    {
        "code": 39172,
        "name": "英台牧場露營區-油桐花秘境",
        "city": "苗栗縣",
        "district": "苗栗市",
        "url": "https://asiayo.com/zh-tw/view/tw/miaoli-county/39172/?tags=camping&isFromPropertyPage=true/",
        "latitude": 24.5609538,
        "longitude": 120.8169081
    },
    {
        "code": 39320,
        "name": "社寮角露營區｜採草莓、螢火蟲導覽",
        "city": "苗栗縣",
        "district": "大湖鄉",
        "url": "https://asiayo.com/zh-tw/view/tw/miaoli-county/39320/?tags=camping&isFromPropertyPage=true/",
        "latitude": 24.4276104,
        "longitude": 120.88067631
    },
    {
        "code": 44379,
        "name": "847 露營區",
        "city": "南投縣",
        "district": "鹿谷鄉",
        "url": "https://asiayo.com/zh-tw/view/tw/nantou-county/44379/?tags=camping&isFromPropertyPage=true/",
        "latitude": 23.7612358,
        "longitude": 120.7406612
    },
    {
        "code": 38896,
        "name": "遊橘露營區",
        "city": "新竹縣",
        "district": "橫山鄉",
        "url": "https://asiayo.com/zh-tw/view/tw/hsinchu-county/38896/?tags=camping&isFromPropertyPage=true/",
        "latitude": 24.726584,
        "longitude": 121.16246
    },
    {
        "code": 49019,
        "name": "崇德大草原｜蒙古包、體驗遊牧民族生活、獨立衛浴",
        "city": "花蓮縣",
        "district": "秀林鄉",
        "url": "https://asiayo.com/zh-tw/view/tw/hualien-county/49019/?tags=camping&isFromPropertyPage=true/",
        "latitude": 24.1452319,
        "longitude": 121.663096
    },
    {
        "code": 49158,
        "name": "清境茶野裡山野露營｜全新上架神殿帳、一泊一食",
        "city": "南投縣",
        "district": "仁愛鄉",
        "url": "https://asiayo.com/zh-tw/view/tw/nantou-county/49158/?tags=camping&isFromPropertyPage=true/",
        "latitude": 24.045697,
        "longitude": 121.157331
    },
    {
        "code": 44215,
        "name": "荷蘭村露營區｜免裝備露營區、德元埤荷蘭村",
        "city": "台南市",
        "district": "柳營區",
        "url": "https://asiayo.com/zh-tw/view/tw/tainan-city/44215/?tags=camping&isFromPropertyPage=true/",
        "latitude": 23.2637488,
        "longitude": 120.3383667
    },
    {
        "code": 39395,
        "name": "新豐休閒農場｜平日8折！特色蒙古包露營、包棟小木屋",
        "city": "新竹縣",
        "district": "新豐鄉",
        "url": "https://asiayo.com/zh-tw/view/tw/hsinchu-county/39395/?tags=camping&isFromPropertyPage=true/",
        "latitude": 24.93504731,
        "longitude": 120.9954965
    },
    {
        "code": 39399,
        "name": "山嵐謐靜露營民宿｜南投縣國姓鄉",
        "city": "南投縣",
        "district": "國姓鄉",
        "url": "https://asiayo.com/zh-tw/view/tw/nantou-county/39399/?tags=camping&isFromPropertyPage=true/",
        "latitude": 24.07547957,
        "longitude": 120.87718163
    },
    {
        "code": 39517,
        "name": "都瑪斯民宿露營區",
        "city": "苗栗縣",
        "district": "泰安鄉",
        "url": "https://asiayo.com/zh-tw/view/tw/miaoli-county/39517/?tags=camping&isFromPropertyPage=true/",
        "latitude": 24.3838117,
        "longitude": 120.9691942
    },
    {
        "code": 39771,
        "name": "墾丁\b麓人甲露營區｜超夯免裝備包區！",
        "city": "屏東縣",
        "district": "墾丁 (恆春鎮)",
        "url": "https://asiayo.com/zh-tw/view/tw/pingtung-county/39771/?tags=camping&isFromPropertyPage=true/",
        "latitude": 22.04175098,
        "longitude": 120.71242287
    },
    {
        "code": 40042,
        "name": "依杉林露營區｜彩虹雨棚營位！",
        "city": "苗栗縣",
        "district": "銅鑼鄉",
        "url": "https://asiayo.com/zh-tw/view/tw/miaoli-county/40042/?tags=camping&isFromPropertyPage=true/",
        "latitude": 24.4234254,
        "longitude": 120.8057064
    },
    {
        "code": 40332,
        "name": "湖南高地軍營民宿 l 免裝備露營",
        "city": "金門縣",
        "district": "金寧鄉",
        "url": "https://asiayo.com/zh-tw/view/tw/kinmen-county/40332/?tags=camping&isFromPropertyPage=true/",
        "latitude": 24.45585931,
        "longitude": 118.331764
    },
    {
        "code": 40597,
        "name": "關西大象露營區｜賞螢火蟲、兒童遊戲區",
        "city": "新竹縣",
        "district": "關西鎮",
        "url": "https://asiayo.com/zh-tw/view/tw/hsinchu-county/40597/?tags=camping&isFromPropertyPage=true/",
        "latitude": 24.814656,
        "longitude": 121.180837
    },
    {
        "code": 40722,
        "name": "明園星空營地",
        "city": "新竹縣",
        "district": "新埔鎮",
        "url": "https://asiayo.com/zh-tw/view/tw/hsinchu-county/40722/?tags=camping&isFromPropertyPage=true/",
        "latitude": 24.8560318,
        "longitude": 121.1355889
    },
    {
        "code": 40774,
        "name": "鹿露山景露營區｜魚池鄉自搭帳",
        "city": "南投縣",
        "district": "魚池鄉",
        "url": "https://asiayo.com/zh-tw/view/tw/nantou-county/40774/?tags=camping&isFromPropertyPage=true/",
        "latitude": 23.92560112,
        "longitude": 120.94297203
    },
    {
        "code": 43837,
        "name": "阿里山倉伯露營區",
        "city": "嘉義縣",
        "district": "阿里山鄉",
        "url": "https://asiayo.com/zh-tw/view/tw/chiayi-county/43837/?tags=camping&isFromPropertyPage=true/",
        "latitude": 23.4609533,
        "longitude": 120.6983053
    },
    {
        "code": 43902,
        "name": "草地狀元露營區",
        "city": "嘉義縣",
        "district": "大埔鄉",
        "url": "https://asiayo.com/zh-tw/view/tw/chiayi-county/43902/?tags=camping&isFromPropertyPage=true/",
        "latitude": 23.4797349,
        "longitude": 120.62595555
    },
    {
        "code": 44067,
        "name": "人魚空間彩虹館｜豪華露營、近白沙灣、一泊四食",
        "city": "新北市",
        "district": "石門區",
        "url": "https://asiayo.com/zh-tw/view/tw/new-taipei-city/44067/?tags=camping&isFromPropertyPage=true/",
        "latitude": 25.2852113,
        "longitude": 121.5109766
    },
    {
        "code": 44435,
        "name": "微光露營區",
        "city": "台南市",
        "district": "楠西區",
        "url": "https://asiayo.com/zh-tw/view/tw/tainan-city/44435/?tags=camping&isFromPropertyPage=true/",
        "latitude": 23.16105866,
        "longitude": 120.5054503
    },
    {
        "code": 44480,
        "name": "伊咪達督露營區",
        "city": "高雄市",
        "district": "那瑪夏區",
        "url": "https://asiayo.com/zh-tw/view/tw/kaohsiung-city/44480/?tags=camping&isFromPropertyPage=true/",
        "latitude": 23.2411369,
        "longitude": 120.6944575
    },
    {
        "code": 44587,
        "name": "民權大橋露營區",
        "city": "高雄市",
        "district": "那瑪夏區",
        "url": "https://asiayo.com/zh-tw/view/tw/kaohsiung-city/44587/?tags=camping&isFromPropertyPage=true/",
        "latitude": 23.24595,
        "longitude": 120.69488
    },
    {
        "code": 45317,
        "name": "嶼野山隱｜新上架、小琉球全新小木屋",
        "city": "屏東縣",
        "district": "琉球鄉 (小琉球)",
        "url": "https://asiayo.com/zh-tw/view/tw/pingtung-county/45317/?tags=camping&isFromPropertyPage=true/",
        "latitude": 22.3414367,
        "longitude": 120.3720018
    }
]