[
    {
        "code": 39348,
        "name": "山裡面的嵐卡｜一帳一區祕境露營、可加購餐點",
        "city": "南投縣",
        "district": "信義鄉",
        "url": "https://asiayo.com/zh-tw/view/tw/nantou-county/39348/?tags=camping&isFromPropertyPage=true/",
        "latitude": 23.7943056,
        "longitude": 120.96325
    },
    {
        "code": 40441,
        "name": "暮沐露營小庄｜全新星球帳、民宿",
        "city": "南投縣",
        "district": "魚池鄉",
        "url": "https://asiayo.com/zh-tw/view/tw/nantou-county/40441/?tags=camping&isFromPropertyPage=true/",
        "latitude": 23.9108916,
        "longitude": 120.8873889
    },
    {
        "code": 45130,
        "name": "基路伯營區｜獨家7折起！近清境農場、星空露營屋",
        "city": "南投縣",
        "district": "仁愛鄉",
        "url": "https://asiayo.com/zh-tw/view/tw/nantou-county/45130/?tags=camping&isFromPropertyPage=true/",
        "latitude": 24.03388817,
        "longitude": 121.14192927
    },
    {
        "code": 39385,
        "name": "拂水山莊｜可選購一泊二食、絕美神殿帳",
        "city": "南投縣",
        "district": "魚池鄉",
        "url": "https://asiayo.com/zh-tw/view/tw/nantou-county/39385/?tags=camping&isFromPropertyPage=true/",
        "latitude": 23.90376969,
        "longitude": 120.95865655
    },
    {
        "code": 39226,
        "name": "緣溪行森林營地｜一泊二食送迎賓點心、親子友善",
        "city": "南投縣",
        "district": "埔里鎮",
        "url": "https://asiayo.com/zh-tw/view/tw/nantou-county/39226/?tags=camping&isFromPropertyPage=true/",
        "latitude": 23.9769115,
        "longitude": 120.9896643
    },
    {
        "code": 46223,
        "name": "埔里桂花庭生態營地｜新上架！南投懶人露營、CP值高",
        "city": "南投縣",
        "district": "埔里鎮",
        "url": "https://asiayo.com/zh-tw/view/tw/nantou-county/46223/?tags=camping&isFromPropertyPage=true/",
        "latitude": 23.9500867,
        "longitude": 120.9662745
    },
    {
        "code": 39864,
        "name": "野趣凍頂-奢華露營｜春節初一至初四加碼抽獎活動/獨立衛浴",
        "city": "南投縣",
        "district": "鹿谷鄉",
        "url": "https://asiayo.com/zh-tw/view/tw/nantou-county/39864/?tags=camping&isFromPropertyPage=true/",
        "latitude": 23.74622607,
        "longitude": 120.76352097
    },
    {
        "code": 39314,
        "name": "山思雲想｜獨家8折起！一泊四食、職人體驗",
        "city": "南投縣",
        "district": "竹山鎮",
        "url": "https://asiayo.com/zh-tw/view/tw/nantou-county/39314/?tags=camping&isFromPropertyPage=true/",
        "latitude": 23.6970962,
        "longitude": 120.7129014
    },
    {
        "code": 41599,
        "name": "花鳥蟲鳴高山露營區｜近清境、雲海美景",
        "city": "南投縣",
        "district": "仁愛鄉",
        "url": "https://asiayo.com/zh-tw/view/tw/nantou-county/41599/?tags=camping&isFromPropertyPage=true/",
        "latitude": 24.07480122,
        "longitude": 121.17140069
    },
    {
        "code": 49233,
        "name": "愛聚時光露營區｜全新上架、山屋狩獵帳、一泊四食＋手作",
        "city": "南投縣",
        "district": "埔里鎮",
        "url": "https://asiayo.com/zh-tw/view/tw/nantou-county/49233/?tags=camping&isFromPropertyPage=true/",
        "latitude": 23.9503606,
        "longitude": 120.9193805
    },
    {
        "code": 39866,
        "name": "卡爾小鎮｜早鳥八折起！清境星空露營車、星空夢幻帳",
        "city": "南投縣",
        "district": "仁愛鄉",
        "url": "https://asiayo.com/zh-tw/view/tw/nantou-county/39866/?tags=camping&isFromPropertyPage=true/",
        "latitude": 24.1034249,
        "longitude": 121.1946144
    },
    {
        "code": 47145,
        "name": "陌野露營車驛站｜新上架！豪華露營車、獨立露臺、寵物友善",
        "city": "南投縣",
        "district": "魚池鄉",
        "url": "https://asiayo.com/zh-tw/view/tw/nantou-county/47145/?tags=camping&isFromPropertyPage=true/",
        "latitude": 23.8669415,
        "longitude": 120.9067058
    },
    {
        "code": 39396,
        "name": "見晴花園渡假山莊｜可選購樓中樓帳篷、露營車",
        "city": "南投縣",
        "district": "仁愛鄉",
        "url": "https://asiayo.com/zh-tw/view/tw/nantou-county/39396/?tags=camping&isFromPropertyPage=true/",
        "latitude": 24.0415579,
        "longitude": 121.1582995
    },
    {
        "code": 46982,
        "name": "水与松森林莊園｜一泊三食+手做DIY、無邊際泳池",
        "city": "南投縣",
        "district": "埔里鎮",
        "url": "https://asiayo.com/zh-tw/view/tw/nantou-county/46982/?tags=camping&isFromPropertyPage=true/",
        "latitude": 23.9652323,
        "longitude": 120.9442845
    },
    {
        "code": 39373,
        "name": "白鹿營區｜親子首選、高 CP 值彩色合掌屋",
        "city": "南投縣",
        "district": "魚池鄉",
        "url": "https://asiayo.com/zh-tw/view/tw/nantou-county/39373/?tags=camping&isFromPropertyPage=true/",
        "latitude": 23.883603,
        "longitude": 120.920693
    },
    {
        "code": 39850,
        "name": "朵娜朵露營區｜獨家晚鳥9折！清境免裝備露營、平日限定",
        "city": "南投縣",
        "district": "仁愛鄉",
        "url": "https://asiayo.com/zh-tw/view/tw/nantou-county/39850/?tags=camping&isFromPropertyPage=true/",
        "latitude": 24.044763,
        "longitude": 121.159218
    },
    {
        "code": 10594,
        "name": "空中邊境｜豪華露營、無敵百萬夜景／免費停車場／兒童遊戲區",
        "city": "南投縣",
        "district": "竹山鎮",
        "url": "https://asiayo.com/zh-tw/view/tw/nantou-county/10594/?tags=camping&isFromPropertyPage=true/",
        "latitude": 23.698542,
        "longitude": 120.713391
    },
    {
        "code": 39383,
        "name": "白鹿窯莊園｜ 鄰近曰月潭、彩色露營屋",
        "city": "南投縣",
        "district": "魚池鄉",
        "url": "https://asiayo.com/zh-tw/view/tw/nantou-county/39383/?tags=camping&isFromPropertyPage=true/",
        "latitude": 23.90343162,
        "longitude": 120.92744689
    },
    {
        "code": 40516,
        "name": "峇嵐杉丘｜一泊三食、獨立衛浴",
        "city": "南投縣",
        "district": "魚池鄉",
        "url": "https://asiayo.com/zh-tw/view/tw/nantou-county/40516/?tags=camping&isFromPropertyPage=true/",
        "latitude": 23.8896273,
        "longitude": 120.9213643
    },
    {
        "code": 39225,
        "name": "森林蜂味露營區｜提供裝備租借方案",
        "city": "南投縣",
        "district": "埔里鎮",
        "url": "https://asiayo.com/zh-tw/view/tw/nantou-county/39225/?tags=camping&isFromPropertyPage=true/",
        "latitude": 23.9417932,
        "longitude": 120.9249079
    },
    {
        "code": 39687,
        "name": "麗鴻的家｜合掌屋、玩具白沙池、親子釣魚池",
        "city": "南投縣",
        "district": "魚池鄉",
        "url": "https://asiayo.com/zh-tw/view/tw/nantou-county/39687/?tags=camping&isFromPropertyPage=true/",
        "latitude": 23.883603,
        "longitude": 120.920693
    },
    {
        "code": 40668,
        "name": "依星生態農場｜獨家8折起！懶人露營、百萬夜景、雲海、高海拔！",
        "city": "南投縣",
        "district": "中寮鄉",
        "url": "https://asiayo.com/zh-tw/view/tw/nantou-county/40668/?tags=camping&isFromPropertyPage=true/",
        "latitude": 23.960646,
        "longitude": 120.8347411
    },
    {
        "code": 40528,
        "name": "深山林內生態農場｜全新狩獵帳、星空玻璃屋",
        "city": "南投縣",
        "district": "竹山鎮",
        "url": "https://asiayo.com/zh-tw/view/tw/nantou-county/40528/?tags=camping&isFromPropertyPage=true/",
        "latitude": 23.6869932,
        "longitude": 120.7178432
    },
    {
        "code": 45112,
        "name": "廿十八路露營區｜雲海、高海拔！",
        "city": "南投縣",
        "district": "國姓鄉",
        "url": "https://asiayo.com/zh-tw/view/tw/nantou-county/45112/?tags=camping&isFromPropertyPage=true/",
        "latitude": 23.940684,
        "longitude": 120.8346148
    },
    {
        "code": 39334,
        "name": "三生園生態露營區｜草皮營位、五星級浴廁",
        "city": "南投縣",
        "district": "鹿谷鄉",
        "url": "https://asiayo.com/zh-tw/view/tw/nantou-county/39334/?tags=camping&isFromPropertyPage=true/",
        "latitude": 23.7260582,
        "longitude": 120.776549
    },
    {
        "code": 39143,
        "name": "空中邊境露營區｜無敵百萬夜景、免費停車場、兒童遊戲區",
        "city": "南投縣",
        "district": "竹山鎮",
        "url": "https://asiayo.com/zh-tw/view/tw/nantou-county/39143/?tags=camping&isFromPropertyPage=true/",
        "latitude": 23.6984694,
        "longitude": 120.7134601
    },
    {
        "code": 44379,
        "name": "847 露營區",
        "city": "南投縣",
        "district": "鹿谷鄉",
        "url": "https://asiayo.com/zh-tw/view/tw/nantou-county/44379/?tags=camping&isFromPropertyPage=true/",
        "latitude": 23.7612358,
        "longitude": 120.7406612
    },
    {
        "code": 49158,
        "name": "清境茶野裡山野露營｜全新上架神殿帳、一泊一食",
        "city": "南投縣",
        "district": "仁愛鄉",
        "url": "https://asiayo.com/zh-tw/view/tw/nantou-county/49158/?tags=camping&isFromPropertyPage=true/",
        "latitude": 24.045697,
        "longitude": 121.157331
    },
    {
        "code": 39399,
        "name": "山嵐謐靜露營民宿｜南投縣國姓鄉",
        "city": "南投縣",
        "district": "國姓鄉",
        "url": "https://asiayo.com/zh-tw/view/tw/nantou-county/39399/?tags=camping&isFromPropertyPage=true/",
        "latitude": 24.07547957,
        "longitude": 120.87718163
    },
    {
        "code": 40774,
        "name": "鹿露山景露營區｜魚池鄉自搭帳",
        "city": "南投縣",
        "district": "魚池鄉",
        "url": "https://asiayo.com/zh-tw/view/tw/nantou-county/40774/?tags=camping&isFromPropertyPage=true/",
        "latitude": 23.92560112,
        "longitude": 120.94297203
    },
    {
        "code": 44494,
        "name": "村自然 VillNature Glamping｜近日月潭、6人即可包村、附冷暖氣",
        "city": "南投縣",
        "district": "魚池鄉",
        "url": "https://asiayo.com/zh-tw/view/tw/nantou-county/44494/?tags=camping&isFromPropertyPage=true/",
        "latitude": 23.8210261,
        "longitude": 120.9059302
    }
]