[
    {
        "code": 39383,
        "name": "白鹿窯莊園｜ 鄰近曰月潭、彩色露營屋",
        "city": "南投縣",
        "district": "魚池鄉",
        "url": "https://asiayo.com/zh-tw/view/tw/nantou-county/39383/?tags=camping&isFromPropertyPage=true/",
        "latitude": 23.90343162,
        "longitude": 120.92744689
    },
    {
        "code": 39466,
        "name": "泰里埔露營區",
        "city": "新竹縣",
        "district": "尖石鄉",
        "url": "https://asiayo.com/zh-tw/view/tw/hsinchu-county/39466/?tags=camping&isFromPropertyPage=true/",
        "latitude": 24.6712211,
        "longitude": 121.2952729
    },
    {
        "code": 44019,
        "name": "趣兒Chill:藍鵲菲菲｜一泊三食",
        "city": "台北市",
        "district": "士林區",
        "url": "https://asiayo.com/zh-tw/view/tw/taipei-city/44019/?tags=camping&isFromPropertyPage=true/",
        "latitude": 25.1521217,
        "longitude": 121.5585331
    },
    {
        "code": 40279,
        "name": "靜月居｜小木屋及露營體驗",
        "city": "新竹縣",
        "district": "峨眉鄉",
        "url": "https://asiayo.com/zh-tw/view/tw/hsinchu-county/40279/?tags=camping&isFromPropertyPage=true/",
        "latitude": 24.671461,
        "longitude": 120.9942721
    },
    {
        "code": 39129,
        "name": "愛上喜翁｜櫻花季搶先開賣！一泊二食獨家方案",
        "city": "新竹縣",
        "district": "五峰鄉",
        "url": "https://asiayo.com/zh-tw/view/tw/hsinchu-county/39129/?tags=camping&isFromPropertyPage=true/",
        "latitude": 24.5908476,
        "longitude": 121.1289742
    },
    {
        "code": 15697,
        "name": "工匠家小木屋民宿｜可選購露營車房型",
        "city": "宜蘭縣",
        "district": "頭城鎮",
        "url": "https://asiayo.com/zh-tw/view/tw/yilan-county/15697/?tags=camping&isFromPropertyPage=true/",
        "latitude": 24.837677,
        "longitude": 121.799431
    },
    {
        "code": 39800,
        "name": "桃樂絲露營區｜下訂並加營區LINE，免費升級一泊二食！",
        "city": "苗栗縣",
        "district": "公館鄉",
        "url": "https://asiayo.com/zh-tw/view/tw/miaoli-county/39800/?tags=camping&isFromPropertyPage=true/",
        "latitude": 24.5462114,
        "longitude": 120.8409905
    },
    {
        "code": 40516,
        "name": "峇嵐杉丘｜一泊三食、獨立衛浴",
        "city": "南投縣",
        "district": "魚池鄉",
        "url": "https://asiayo.com/zh-tw/view/tw/nantou-county/40516/?tags=camping&isFromPropertyPage=true/",
        "latitude": 23.8896273,
        "longitude": 120.9213643
    },
    {
        "code": 41606,
        "name": "颯颯谷 • 輕鬆露營｜獨家晚鳥85折！免裝備露營、可加套裝行程",
        "city": "屏東縣",
        "district": "滿州鄉",
        "url": "https://asiayo.com/zh-tw/view/tw/pingtung-county/41606/?tags=camping&isFromPropertyPage=true/",
        "latitude": 22.02582416,
        "longitude": 120.82500274
    },
    {
        "code": 40674,
        "name": "海放你基地｜豐濱海景第一排、靠山面海",
        "city": "花蓮縣",
        "district": "豐濱鄉",
        "url": "https://asiayo.com/zh-tw/view/tw/hualien-county/40674/?tags=camping&isFromPropertyPage=true/",
        "latitude": 23.6131676,
        "longitude": 121.5285056
    },
    {
        "code": 41578,
        "name": "充電莊｜  山景/海景/夜景、小木屋、民宿、露營",
        "city": "宜蘭縣",
        "district": "礁溪鄉",
        "url": "https://asiayo.com/zh-tw/view/tw/yilan-county/41578/?tags=camping&isFromPropertyPage=true/",
        "latitude": 24.8087207,
        "longitude": 121.6960817
    },
    {
        "code": 41808,
        "name": "尖石天空小木屋露營區｜高海拔、鄰近青蛙石天空步道",
        "city": "新竹縣",
        "district": "尖石鄉",
        "url": "https://asiayo.com/zh-tw/view/tw/hsinchu-county/41808/?tags=camping&isFromPropertyPage=true/",
        "latitude": 24.6952858,
        "longitude": 121.2662896
    },
    {
        "code": 40855,
        "name": "朋趣露營車｜全新露營車、全包式度假體驗",
        "city": "桃園市",
        "district": "龍潭區",
        "url": "https://asiayo.com/zh-tw/view/tw/taoyuan-city/40855/?tags=camping&isFromPropertyPage=true/",
        "latitude": 24.869648,
        "longitude": 121.2478822
    },
    {
        "code": 48735,
        "name": "百崴露營區｜新上架！豪華露營、一泊三食、近內灣老街",
        "city": "新竹縣",
        "district": "橫山鄉",
        "url": "https://asiayo.com/zh-tw/view/tw/hsinchu-county/48735/?tags=camping&isFromPropertyPage=true/",
        "latitude": 24.7431863,
        "longitude": 121.162304
    },
    {
        "code": 44200,
        "name": "飛鳥恰恰",
        "city": "新竹縣",
        "district": "五峰鄉",
        "url": "https://asiayo.com/zh-tw/view/tw/hsinchu-county/44200/?tags=camping&isFromPropertyPage=true/",
        "latitude": 24.6578627,
        "longitude": 121.1728902
    },
    {
        "code": 42185,
        "name": "海邊舟舟｜曉晴星空露營地",
        "city": "台東縣",
        "district": "長濱鄉",
        "url": "https://asiayo.com/zh-tw/view/tw/taitung-county/42185/?tags=camping&isFromPropertyPage=true/",
        "latitude": 23.2414863,
        "longitude": 121.4161051
    },
    {
        "code": 39718,
        "name": "小琉球八海浬｜露營車、獨立庭院",
        "city": "屏東縣",
        "district": "琉球鄉 (小琉球)",
        "url": "https://asiayo.com/zh-tw/view/tw/pingtung-county/39718/?tags=camping&isFromPropertyPage=true/",
        "latitude": 22.34849181,
        "longitude": 120.38319529
    },
    {
        "code": 39687,
        "name": "麗鴻的家｜合掌屋、玩具白沙池、親子釣魚池",
        "city": "南投縣",
        "district": "魚池鄉",
        "url": "https://asiayo.com/zh-tw/view/tw/nantou-county/39687/?tags=camping&isFromPropertyPage=true/",
        "latitude": 23.883603,
        "longitude": 120.920693
    },
    {
        "code": 38990,
        "name": "布萊頓霍夫莊園｜可選購海景豪華露營車",
        "city": "花蓮縣",
        "district": "壽豐鄉",
        "url": "https://asiayo.com/zh-tw/view/tw/hualien-county/38990/?tags=camping&isFromPropertyPage=true/",
        "latitude": 23.8987355,
        "longitude": 121.6036195
    },
    {
        "code": 40111,
        "name": "猿田野露營區｜免裝備露營/自搭帳營位",
        "city": "屏東縣",
        "district": "車城鄉",
        "url": "https://asiayo.com/zh-tw/view/tw/pingtung-county/40111/?tags=camping&isFromPropertyPage=true/",
        "latitude": 22.0108205,
        "longitude": 120.6945468
    }
]